var ags_data = {"type":"FeatureCollection", "features": [
{"type":"Feature","geometry":{"type":"Point","coordinates":[-102.26852499968594,22.020962499888505]},"properties":{"CVEGEO":"010110141009A800","CVE_ENT":"01","CVE_MUN":"011","CVE_LOC":"0141","CVE_AGEB":"009A","CVE_MZA":"800","NOMGEO":"Granja de Efraín Gutiérrez","PLANO":"No"}},
{"type":"Feature","geometry":{"type":"Point","coordinates":[-102.12841500028124,21.755151944269855]},"properties":{"CVEGEO":"0100120531941800","CVE_ENT":"01","CVE_MUN":"001","CVE_LOC":"2053","CVE_AGEB":"1941","CVE_MZA":"800","NOMGEO":"Los Durón I","PLANO":"Croquis"}},
{"type":"Feature","geometry":{"type":"Point","coordinates":[-102.40308250043992,21.882635555977377]},"properties":{"CVEGEO":"0100123201068800","CVE_ENT":"01","CVE_MUN":"001","CVE_LOC":"2320","CVE_AGEB":"1068","CVE_MZA":"800","NOMGEO":"El Picacho [Rancho]","PLANO":"No"}},
{"type":"Feature","geometry":{"type":"Point","coordinates":[-102.29740611094257,22.298318333524875]},"properties":{"CVEGEO":"0100703530044800","CVE_ENT":"01","CVE_MUN":"007","CVE_LOC":"0353","CVE_AGEB":"0044","CVE_MZA":"800","NOMGEO":"La Loma de los Encinos","PLANO":"No"}},
{"type":"Feature","geometry":{"type":"Point","coordinates":[-102.13501333320899,21.897083888809266]},"properties":{"CVEGEO":"0101002240073800","CVE_ENT":"01","CVE_MUN":"010","CVE_LOC":"0224","CVE_AGEB":"0073","CVE_MZA":"800","NOMGEO":"Los Ocales","PLANO":"No"}},
{"type":"Feature","geometry":{"type":"Point","coordinates":[-102.73899361055271,21.88501249966328]},"properties":{"CVEGEO":"010030085005A800","CVE_ENT":"01","CVE_MUN":"003","CVE_LOC":"0085","CVE_AGEB":"005A","CVE_MZA":"800","NOMGEO":"Santos","PLANO":"No"}},
{"type":"Feature","geometry":{"type":"Point","coordinates":[-102.28848111134047,21.970751944489752]},"properties":{"CVEGEO":"0100503670035800","CVE_ENT":"01","CVE_MUN":"005","CVE_LOC":"0367","CVE_AGEB":"0035","CVE_MZA":"800","NOMGEO":"Rila","PLANO":"No"}},
{"type":"Feature","geometry":{"type":"Point","coordinates":[-102.3735305557755,21.871874721844748]},"properties":{"CVEGEO":"0100100941068800","CVE_ENT":"01","CVE_MUN":"001","CVE_LOC":"0094","CVE_AGEB":"1068","CVE_MZA":"800","NOMGEO":"Granja Adelita","PLANO":"No"}},
{"type":"Feature","geometry":{"type":"Point","coordinates":[-102.3571219441285,21.88375611074108]},"properties":{"CVEGEO":"0100100961759800","CVE_ENT":"01","CVE_MUN":"001","CVE_LOC":"0096","CVE_AGEB":"1759","CVE_MZA":"800","NOMGEO":"Agua Azul","PLANO":"Croquis"}},
{"type":"Feature","geometry":{"type":"Point","coordinates":[-102.37274555591662,21.85459888872808]},"properties":{"CVEGEO":"0100101001759800","CVE_ENT":"01","CVE_MUN":"001","CVE_LOC":"0100","CVE_AGEB":"1759","CVE_MZA":"800","NOMGEO":"Rancho Alegre","PLANO":"No"}},
{"type":"Feature","geometry":{"type":"Point","coordinates":[-102.3572947221724,21.780180555185304]},"properties":{"CVEGEO":"0100101021123800","CVE_ENT":"01","CVE_MUN":"001","CVE_LOC":"0102","CVE_AGEB":"1123","CVE_MZA":"800","NOMGEO":"Los Arbolitos [Rancho]","PLANO":"No"}},
{"type":"Feature","geometry":{"type":"Point","coordinates":[-102.19192055594728,21.945067499693916]},"properties":{"CVEGEO":"0100101041903800","CVE_ENT":"01","CVE_MUN":"001","CVE_LOC":"0104","CVE_AGEB":"1903","CVE_MZA":"800","NOMGEO":"Ardillas de Abajo (Las Ardillas)","PLANO":"Croquis"}},
{"type":"Feature","geometry":{"type":"Point","coordinates":[-102.27395499981627,21.801773333268915]},"properties":{"CVEGEO":"0100101061763800","CVE_ENT":"01","CVE_MUN":"001","CVE_LOC":"0106","CVE_AGEB":"1763","CVE_MZA":"800","NOMGEO":"Arellano","PLANO":"Si"}},
{"type":"Feature","geometry":{"type":"Point","coordinates":[-102.1248169440357,21.747493888656606]},"properties":{"CVEGEO":"010010112127A800","CVE_ENT":"01","CVE_MUN":"001","CVE_LOC":"0112","CVE_AGEB":"127A","CVE_MZA":"800","NOMGEO":"Bajío los Vázquez","PLANO":"Croquis"}},
{"type":"Feature","geometry":{"type":"Point","coordinates":[-102.29013111069035,21.7578825000134]},"properties":{"CVEGEO":"0100101131138800","CVE_ENT":"01","CVE_MUN":"001","CVE_LOC":"0113","CVE_AGEB":"1138","CVE_MZA":"800","NOMGEO":"Bajío de Montoro","PLANO":"No"}},
{"type":"Feature","geometry":{"type":"Point","coordinates":[-102.29319527805917,21.719147221764892]},"properties":{"CVEGEO":"0100101201250800","CVE_ENT":"01","CVE_MUN":"001","CVE_LOC":"0120","CVE_AGEB":"1250","CVE_MZA":"800","NOMGEO":"Buenavista de Peñuelas","PLANO":"Si"}},
{"type":"Feature","geometry":{"type":"Point","coordinates":[-102.41299222162411,21.774682499581928]},"properties":{"CVEGEO":"0100101211180800","CVE_ENT":"01","CVE_MUN":"001","CVE_LOC":"0121","CVE_AGEB":"1180","CVE_MZA":"800","NOMGEO":"Cabecita 3 Marías (Rancho Nuevo)","PLANO":"Si"}},
{"type":"Feature","geometry":{"type":"Point","coordinates":[-102.23646138900132,21.784062777564312]},"properties":{"CVEGEO":"0100101251763800","CVE_ENT":"01","CVE_MUN":"001","CVE_LOC":"0125","CVE_AGEB":"1763","CVE_MZA":"800","NOMGEO":"Cañada Grande de Cotorina","PLANO":"Si"}},
{"type":"Feature","geometry":{"type":"Point","coordinates":[-102.19698583290328,22.00775416704694]},"properties":{"CVEGEO":"0100101261890800","CVE_ENT":"01","CVE_MUN":"001","CVE_LOC":"0126","CVE_AGEB":"1890","CVE_MZA":"800","NOMGEO":"Cañada Honda [Estación]","PLANO":"Si"}},
{"type":"Feature","geometry":{"type":"Point","coordinates":[-102.466863056402,21.782549722196617]},"properties":{"CVEGEO":"0100101271068800","CVE_ENT":"01","CVE_MUN":"001","CVE_LOC":"0127","CVE_AGEB":"1068","CVE_MZA":"800","NOMGEO":"Los Caños","PLANO":"Si"}},
{"type":"Feature","geometry":{"type":"Point","coordinates":[-102.37072388935468,21.89441249961901]},"properties":{"CVEGEO":"0100101281759800","CVE_ENT":"01","CVE_MUN":"001","CVE_LOC":"0128","CVE_AGEB":"1759","CVE_MZA":"800","NOMGEO":"El Cariñán","PLANO":"Si"}},
{"type":"Feature","geometry":{"type":"Point","coordinates":[-102.31076611138693,21.698553610840392]},"properties":{"CVEGEO":"0100101351250800","CVE_ENT":"01","CVE_MUN":"001","CVE_LOC":"0135","CVE_AGEB":"1250","CVE_MZA":"800","NOMGEO":"El Cedazo (Cedazo de San Antonio)","PLANO":"Si"}},
{"type":"Feature","geometry":{"type":"Point","coordinates":[-102.49871361107388,21.73100750037665]},"properties":{"CVEGEO":"0100101381176800","CVE_ENT":"01","CVE_MUN":"001","CVE_LOC":"0138","CVE_AGEB":"1176","CVE_MZA":"800","NOMGEO":"Centro de Arriba (El Taray)","PLANO":"Si"}},
{"type":"Feature","geometry":{"type":"Point","coordinates":[-102.45353666709306,21.732276388647822]},"properties":{"CVEGEO":"0100101391180800","CVE_ENT":"01","CVE_MUN":"001","CVE_LOC":"0139","CVE_AGEB":"1180","CVE_MZA":"800","NOMGEO":"Cieneguilla (La Lumbrera)","PLANO":"Si"}},
{"type":"Feature","geometry":{"type":"Point","coordinates":[-102.23396944442095,21.82512222250813]},"properties":{"CVEGEO":"0100101411937800","CVE_ENT":"01","CVE_MUN":"001","CVE_LOC":"0141","CVE_AGEB":"1937","CVE_MZA":"800","NOMGEO":"Cobos","PLANO":"Si"}},
{"type":"Feature","geometry":{"type":"Point","coordinates":[-102.16822499952235,21.904433333184276]},"properties":{"CVEGEO":"0100101441918800","CVE_ENT":"01","CVE_MUN":"001","CVE_LOC":"0144","CVE_AGEB":"1918","CVE_MZA":"800","NOMGEO":"El Colorado (El Soyatal)","PLANO":"Si"}},
{"type":"Feature","geometry":{"type":"Point","coordinates":[-102.20811138855296,21.916658055333038]},"properties":{"CVEGEO":"0100101461918800","CVE_ENT":"01","CVE_MUN":"001","CVE_LOC":"0146","CVE_AGEB":"1918","CVE_MZA":"800","NOMGEO":"El Conejal","PLANO":"Si"}},
{"type":"Feature","geometry":{"type":"Point","coordinates":[-102.26651638862222,21.756608055917535]},"properties":{"CVEGEO":"0100101571763800","CVE_ENT":"01","CVE_MUN":"001","CVE_LOC":"0157","CVE_AGEB":"1763","CVE_MZA":"800","NOMGEO":"Cotorina de Abajo","PLANO":"Croquis"}},
{"type":"Feature","geometry":{"type":"Point","coordinates":[-102.34131444413599,21.86929249966901]},"properties":{"CVEGEO":"0100101621759800","CVE_ENT":"01","CVE_MUN":"001","CVE_LOC":"0162","CVE_AGEB":"1759","CVE_MZA":"800","NOMGEO":"Coyotes","PLANO":"Si"}},
{"type":"Feature","geometry":{"type":"Point","coordinates":[-102.44809444360614,21.68766833325099]},"properties":{"CVEGEO":"0100101661231800","CVE_ENT":"01","CVE_MUN":"001","CVE_LOC":"0166","CVE_AGEB":"1231","CVE_MZA":"800","NOMGEO":"La Huerta (La Cruz)","PLANO":"No"}},
{"type":"Feature","geometry":{"type":"Point","coordinates":[-102.35116138918247,21.75635611143875]},"properties":{"CVEGEO":"0100101701246800","CVE_ENT":"01","CVE_MUN":"001","CVE_LOC":"0170","CVE_AGEB":"1246","CVE_MZA":"800","NOMGEO":"Cuauhtémoc (Las Palomas)","PLANO":"Si"}},
{"type":"Feature","geometry":{"type":"Point","coordinates":[-102.16079750024498,21.730890000303233]},"properties":{"CVEGEO":"010010171127A800","CVE_ENT":"01","CVE_MUN":"001","CVE_LOC":"0171","CVE_AGEB":"127A","CVE_MZA":"800","NOMGEO":"Los Cuervos (Los Ojos de Agua)","PLANO":"Si"}},
{"type":"Feature","geometry":{"type":"Point","coordinates":[-102.38273888919076,21.865297777857975]},"properties":{"CVEGEO":"0100101721068800","CVE_ENT":"01","CVE_MUN":"001","CVE_LOC":"0172","CVE_AGEB":"1068","CVE_MZA":"800","NOMGEO":"San José [Granja]","PLANO":"No"}},
{"type":"Feature","geometry":{"type":"Point","coordinates":[-102.16658611091488,21.766346666546326]},"properties":{"CVEGEO":"0100101761212800","CVE_ENT":"01","CVE_MUN":"001","CVE_LOC":"0176","CVE_AGEB":"1212","CVE_MZA":"800","NOMGEO":"La Chiripa","PLANO":"No"}},
{"type":"Feature","geometry":{"type":"Point","coordinates":[-102.37173638886657,21.664743332916206]},"properties":{"CVEGEO":"0100101821246800","CVE_ENT":"01","CVE_MUN":"001","CVE_LOC":"0182","CVE_AGEB":"1246","CVE_MZA":"800","NOMGEO":"Dolores","PLANO":"No"}},
{"type":"Feature","geometry":{"type":"Point","coordinates":[-102.24543333295988,21.840384722361645]},"properties":{"CVEGEO":"0100101831922800","CVE_ENT":"01","CVE_MUN":"001","CVE_LOC":"0183","CVE_AGEB":"1922","CVE_MZA":"800","NOMGEO":"Los Dolores","PLANO":"No"}},
{"type":"Feature","geometry":{"type":"Point","coordinates":[-102.16645138872427,21.782366388570427]},"properties":{"CVEGEO":"0100101901937800","CVE_ENT":"01","CVE_MUN":"001","CVE_LOC":"0190","CVE_AGEB":"1937","CVE_MZA":"800","NOMGEO":"El Duraznillo","PLANO":"Si"}},
{"type":"Feature","geometry":{"type":"Point","coordinates":[-102.13651277848055,21.766089999774003]},"properties":{"CVEGEO":"0100101911941800","CVE_ENT":"01","CVE_MUN":"001","CVE_LOC":"0191","CVE_AGEB":"1941","CVE_MZA":"800","NOMGEO":"Los Durón","PLANO":"Si"}},
{"type":"Feature","geometry":{"type":"Point","coordinates":[-102.35463999967065,21.888177778180825]},"properties":{"CVEGEO":"0100101971759800","CVE_ENT":"01","CVE_MUN":"001","CVE_LOC":"0197","CVE_AGEB":"1759","CVE_MZA":"800","NOMGEO":"Paraíso [Rancho]","PLANO":"No"}},
{"type":"Feature","geometry":{"type":"Point","coordinates":[-102.34643194377705,21.89966611150245]},"properties":{"CVEGEO":"0100102011759800","CVE_ENT":"01","CVE_MUN":"001","CVE_LOC":"0201","CVE_AGEB":"1759","CVE_MZA":"800","NOMGEO":"Desde el Corazón del Fruto","PLANO":"No"}},
{"type":"Feature","geometry":{"type":"Point","coordinates":[-102.35302333330739,21.878049444152538]},"properties":{"CVEGEO":"0100102071759800","CVE_ENT":"01","CVE_MUN":"001","CVE_LOC":"0207","CVE_AGEB":"1759","CVE_MZA":"800","NOMGEO":"Valle Redondo","PLANO":"No"}},
{"type":"Feature","geometry":{"type":"Point","coordinates":[-102.32940333288951,21.832967222247117]},"properties":{"CVEGEO":"0100102091138800","CVE_ENT":"01","CVE_MUN":"001","CVE_LOC":"0209","CVE_AGEB":"1138","CVE_MZA":"800","NOMGEO":"La Fortuna","PLANO":"No"}},
{"type":"Feature","geometry":{"type":"Point","coordinates":[-102.24242499998263,21.856659166825047]},"properties":{"CVEGEO":"0100102121922800","CVE_ENT":"01","CVE_MUN":"001","CVE_LOC":"0212","CVE_AGEB":"1922","CVE_MZA":"800","NOMGEO":"Lomas del Gachupín","PLANO":"Croquis"}},
{"type":"Feature","geometry":{"type":"Point","coordinates":[-102.10605722230238,21.77020916712488]},"properties":{"CVEGEO":"0100102131941800","CVE_ENT":"01","CVE_MUN":"001","CVE_LOC":"0213","CVE_AGEB":"1941","CVE_MZA":"800","NOMGEO":"El Carmen (Gallinas Güeras) [Rancho]","PLANO":"No"}},
{"type":"Feature","geometry":{"type":"Point","coordinates":[-102.37479333325126,21.822132499918688]},"properties":{"CVEGEO":"0100102161759800","CVE_ENT":"01","CVE_MUN":"001","CVE_LOC":"0216","CVE_AGEB":"1759","CVE_MZA":"800","NOMGEO":"La Gloria","PLANO":"No"}},
{"type":"Feature","geometry":{"type":"Point","coordinates":[-102.35881166659571,21.90730972262053]},"properties":{"CVEGEO":"0100102261759800","CVE_ENT":"01","CVE_MUN":"001","CVE_LOC":"0226","CVE_AGEB":"1759","CVE_MZA":"800","NOMGEO":"Hacienda Nueva","PLANO":"Si"}},
{"type":"Feature","geometry":{"type":"Point","coordinates":[-102.4514761110754,21.685866944477013]},"properties":{"CVEGEO":"0100102271231800","CVE_ENT":"01","CVE_MUN":"001","CVE_LOC":"0227","CVE_AGEB":"1231","CVE_MZA":"800","NOMGEO":"La Haciendita (La Esperanza)","PLANO":"No"}},
{"type":"Feature","geometry":{"type":"Point","coordinates":[-102.21260055624856,21.907651666314717]},"properties":{"CVEGEO":"0100102281918800","CVE_ENT":"01","CVE_MUN":"001","CVE_LOC":"0228","CVE_AGEB":"1918","CVE_MZA":"800","NOMGEO":"La Herrada","PLANO":"No"}},
{"type":"Feature","geometry":{"type":"Point","coordinates":[-102.34662583344462,21.892211389277126]},"properties":{"CVEGEO":"0100102301759800","CVE_ENT":"01","CVE_MUN":"001","CVE_LOC":"0230","CVE_AGEB":"1759","CVE_MZA":"800","NOMGEO":"Don Abraham [Rancho]","PLANO":"No"}},
{"type":"Feature","geometry":{"type":"Point","coordinates":[-102.19994777778459,21.755361110670385]},"properties":{"CVEGEO":"010010231127A800","CVE_ENT":"01","CVE_MUN":"001","CVE_LOC":"0231","CVE_AGEB":"127A","CVE_MZA":"800","NOMGEO":"Puerta de los Hoyos","PLANO":"No"}},
{"type":"Feature","geometry":{"type":"Point","coordinates":[-102.11690277810489,21.74569249980109]},"properties":{"CVEGEO":"0100102361941800","CVE_ENT":"01","CVE_MUN":"001","CVE_LOC":"0236","CVE_AGEB":"1941","CVE_MZA":"800","NOMGEO":"Las Jaboneras","PLANO":"Croquis"}},
{"type":"Feature","geometry":{"type":"Point","coordinates":[-102.34377361112998,21.875448611359815]},"properties":{"CVEGEO":"0100102531759800","CVE_ENT":"01","CVE_MUN":"001","CVE_LOC":"0253","CVE_AGEB":"1759","CVE_MZA":"800","NOMGEO":"Los Lirios","PLANO":"No"}},
{"type":"Feature","geometry":{"type":"Point","coordinates":[-102.35027083332523,21.870211944562833]},"properties":{"CVEGEO":"0100102561759800","CVE_ENT":"01","CVE_MUN":"001","CVE_LOC":"0256","CVE_AGEB":"1759","CVE_MZA":"800","NOMGEO":"La Loma de los Negritos","PLANO":"Si"}},
{"type":"Feature","geometry":{"type":"Point","coordinates":[-102.23608222238425,21.83918194406119]},"properties":{"CVEGEO":"0100102651922800","CVE_ENT":"01","CVE_MUN":"001","CVE_LOC":"0265","CVE_AGEB":"1922","CVE_MZA":"800","NOMGEO":"El Malacate","PLANO":"Si"}},
{"type":"Feature","geometry":{"type":"Point","coordinates":[-102.34200416692397,21.89903194460428]},"properties":{"CVEGEO":"0100102701759800","CVE_ENT":"01","CVE_MUN":"001","CVE_LOC":"0270","CVE_AGEB":"1759","CVE_MZA":"800","NOMGEO":"La Mascota","PLANO":"No"}},
{"type":"Feature","geometry":{"type":"Point","coordinates":[-102.0722755562453,21.78639444396896]},"properties":{"CVEGEO":"0100102721941800","CVE_ENT":"01","CVE_MUN":"001","CVE_LOC":"0272","CVE_AGEB":"1941","CVE_MZA":"800","NOMGEO":"Matamoros [Congregación]","PLANO":"Si"}},
{"type":"Feature","geometry":{"type":"Point","coordinates":[-102.33255499981377,21.64648805582525]},"properties":{"CVEGEO":"0100102791246800","CVE_ENT":"01","CVE_MUN":"001","CVE_LOC":"0279","CVE_AGEB":"1246","CVE_MZA":"800","NOMGEO":"San Isidro","PLANO":"No"}},
{"type":"Feature","geometry":{"type":"Point","coordinates":[-102.2658255558411,21.8023272220581]},"properties":{"CVEGEO":"0100102801763800","CVE_ENT":"01","CVE_MUN":"001","CVE_LOC":"0280","CVE_AGEB":"1763","CVE_MZA":"800","NOMGEO":"San José","PLANO":"Croquis"}},
{"type":"Feature","geometry":{"type":"Point","coordinates":[-102.35004722155341,21.839780833324355]},"properties":{"CVEGEO":"0100102831759800","CVE_ENT":"01","CVE_MUN":"001","CVE_LOC":"0283","CVE_AGEB":"1759","CVE_MZA":"800","NOMGEO":"El Molino","PLANO":"No"}},
{"type":"Feature","geometry":{"type":"Point","coordinates":[-102.29383111114485,21.776055000325126]},"properties":{"CVEGEO":"0100102851138800","CVE_ENT":"01","CVE_MUN":"001","CVE_LOC":"0285","CVE_AGEB":"1138","CVE_MZA":"800","NOMGEO":"Montoro","PLANO":"No"}},
{"type":"Feature","geometry":{"type":"Point","coordinates":[-102.34387611073724,21.872549721889257]},"properties":{"CVEGEO":"0100102911759800","CVE_ENT":"01","CVE_MUN":"001","CVE_LOC":"0291","CVE_AGEB":"1759","CVE_MZA":"800","NOMGEO":"Los Negritos","PLANO":"Si"}},
{"type":"Feature","geometry":{"type":"Point","coordinates":[-102.37809416745561,21.780002777641972]},"properties":{"CVEGEO":"0100102921123800","CVE_ENT":"01","CVE_MUN":"001","CVE_LOC":"0292","CVE_AGEB":"1123","CVE_MZA":"800","NOMGEO":"El Niágara","PLANO":"Si"}},
{"type":"Feature","geometry":{"type":"Point","coordinates":[-102.51842611106473,21.780754722279816]},"properties":{"CVEGEO":"0100102961176800","CVE_ENT":"01","CVE_MUN":"001","CVE_LOC":"0296","CVE_AGEB":"1176","CVE_MZA":"800","NOMGEO":"El Ocote","PLANO":"Si"}},
{"type":"Feature","geometry":{"type":"Point","coordinates":[-102.23752555570603,21.87807166636582]},"properties":{"CVEGEO":"0100102971922800","CVE_ENT":"01","CVE_MUN":"001","CVE_LOC":"0297","CVE_AGEB":"1922","CVE_MZA":"800","NOMGEO":"Comunidad el Rocío","PLANO":"Si"}},
{"type":"Feature","geometry":{"type":"Point","coordinates":[-102.36015694369247,21.892695555422765]},"properties":{"CVEGEO":"0100103091759800","CVE_ENT":"01","CVE_MUN":"001","CVE_LOC":"0309","CVE_AGEB":"1759","CVE_MZA":"800","NOMGEO":"Las Palomas","PLANO":"No"}},
{"type":"Feature","geometry":{"type":"Point","coordinates":[-102.27122222215701,21.721799444137936]},"properties":{"CVEGEO":"0100103151763800","CVE_ENT":"01","CVE_MUN":"001","CVE_LOC":"0315","CVE_AGEB":"1763","CVE_MZA":"800","NOMGEO":"Peñuelas (El Cienegal)","PLANO":"Si"}},
{"type":"Feature","geometry":{"type":"Point","coordinates":[-102.39946861127272,21.679566666497298]},"properties":{"CVEGEO":"0100103211231800","CVE_ENT":"01","CVE_MUN":"001","CVE_LOC":"0321","CVE_AGEB":"1231","CVE_MZA":"800","NOMGEO":"Piedras Chinas","PLANO":"No"}},
{"type":"Feature","geometry":{"type":"Point","coordinates":[-102.31444638858186,21.764791944633032]},"properties":{"CVEGEO":"0100103291138800","CVE_ENT":"01","CVE_MUN":"001","CVE_LOC":"0329","CVE_AGEB":"1138","CVE_MZA":"800","NOMGEO":"Presa de Guadalupe","PLANO":"No"}},
{"type":"Feature","geometry":{"type":"Point","coordinates":[-102.10493027778118,21.784399722381142]},"properties":{"CVEGEO":"0100103361941800","CVE_ENT":"01","CVE_MUN":"001","CVE_LOC":"0336","CVE_AGEB":"1941","CVE_MZA":"800","NOMGEO":"Soledad de Arriba","PLANO":"No"}},
{"type":"Feature","geometry":{"type":"Point","coordinates":[-102.37868611063415,21.886168333038746]},"properties":{"CVEGEO":"0100103401759800","CVE_ENT":"01","CVE_MUN":"001","CVE_LOC":"0340","CVE_AGEB":"1759","CVE_MZA":"800","NOMGEO":"La Puerta (Granjas Cariñán)","PLANO":"Croquis"}},
{"type":"Feature","geometry":{"type":"Point","coordinates":[-102.28954055603646,21.715968888762337]},"properties":{"CVEGEO":"0100103451250800","CVE_ENT":"01","CVE_MUN":"001","CVE_LOC":"0345","CVE_AGEB":"1250","CVE_MZA":"800","NOMGEO":"El Refugio de Peñuelas","PLANO":"Si"}},
{"type":"Feature","geometry":{"type":"Point","coordinates":[-102.22730527818537,21.80290472262627]},"properties":{"CVEGEO":"0100103471937800","CVE_ENT":"01","CVE_MUN":"001","CVE_LOC":"0347","CVE_AGEB":"1937","CVE_MZA":"800","NOMGEO":"El Refugio I","PLANO":"No"}},
{"type":"Feature","geometry":{"type":"Point","coordinates":[-102.33472777847457,21.888531944708166]},"properties":{"CVEGEO":"0100103531759800","CVE_ENT":"01","CVE_MUN":"001","CVE_LOC":"0353","CVE_AGEB":"1759","CVE_MZA":"800","NOMGEO":"El Rodeo","PLANO":"Croquis"}},
{"type":"Feature","geometry":{"type":"Point","coordinates":[-102.37203388940429,21.758087499960766]},"properties":{"CVEGEO":"0100103551123800","CVE_ENT":"01","CVE_MUN":"001","CVE_LOC":"0355","CVE_AGEB":"1123","CVE_MZA":"800","NOMGEO":"El Salto de los Salado","PLANO":"Si"}},
{"type":"Feature","geometry":{"type":"Point","coordinates":[-102.30763694443631,21.812629721999546]},"properties":{"CVEGEO":"0100103581138800","CVE_ENT":"01","CVE_MUN":"001","CVE_LOC":"0358","CVE_AGEB":"1138","CVE_MZA":"800","NOMGEO":"San Agustín","PLANO":"No"}},
{"type":"Feature","geometry":{"type":"Point","coordinates":[-102.36779527842285,21.899964443997646]},"properties":{"CVEGEO":"0100103621759800","CVE_ENT":"01","CVE_MUN":"001","CVE_LOC":"0362","CVE_AGEB":"1759","CVE_MZA":"800","NOMGEO":"San Antonio [Granja]","PLANO":"Croquis"}},
{"type":"Feature","geometry":{"type":"Point","coordinates":[-102.36068888889452,21.78013194479559]},"properties":{"CVEGEO":"0100103631123800","CVE_ENT":"01","CVE_MUN":"001","CVE_LOC":"0363","CVE_AGEB":"1123","CVE_MZA":"800","NOMGEO":"San Antonio [Granja]","PLANO":"No"}},
{"type":"Feature","geometry":{"type":"Point","coordinates":[-102.18613888871667,21.951600555158052]},"properties":{"CVEGEO":"0100103661903800","CVE_ENT":"01","CVE_MUN":"001","CVE_LOC":"0366","CVE_AGEB":"1903","CVE_MZA":"800","NOMGEO":"Ejido San Antonio de los Pedroza","PLANO":"Si"}},
{"type":"Feature","geometry":{"type":"Point","coordinates":[-102.36616583318322,21.883834166419014]},"properties":{"CVEGEO":"0100103701759800","CVE_ENT":"01","CVE_MUN":"001","CVE_LOC":"0370","CVE_AGEB":"1759","CVE_MZA":"800","NOMGEO":"San Felipe [Viñedos]","PLANO":"Si"}},
{"type":"Feature","geometry":{"type":"Point","coordinates":[-102.33879444404707,21.891299166762437]},"properties":{"CVEGEO":"0100103791759800","CVE_ENT":"01","CVE_MUN":"001","CVE_LOC":"0379","CVE_AGEB":"1759","CVE_MZA":"800","NOMGEO":"San Ignacio","PLANO":"Si"}},
{"type":"Feature","geometry":{"type":"Point","coordinates":[-102.33201833319832,21.886543333576753]},"properties":{"CVEGEO":"0100103871759800","CVE_ENT":"01","CVE_MUN":"001","CVE_LOC":"0387","CVE_AGEB":"1759","CVE_MZA":"800","NOMGEO":"San José [Granja]","PLANO":"No"}},
{"type":"Feature","geometry":{"type":"Point","coordinates":[-102.34847694414945,21.79251111117946]},"properties":{"CVEGEO":"0100103881138800","CVE_ENT":"01","CVE_MUN":"001","CVE_LOC":"0388","CVE_AGEB":"1138","CVE_MZA":"800","NOMGEO":"San José de la Esperanza","PLANO":"Croquis"}},
{"type":"Feature","geometry":{"type":"Point","coordinates":[-102.1541894438747,21.95103861128304]},"properties":{"CVEGEO":"0100103891890800","CVE_ENT":"01","CVE_MUN":"001","CVE_LOC":"0389","CVE_AGEB":"1890","CVE_MZA":"800","NOMGEO":"San José de la Ordeña","PLANO":"Si"}},
{"type":"Feature","geometry":{"type":"Point","coordinates":[-102.34992416656186,21.853633332899868]},"properties":{"CVEGEO":"0100104011759800","CVE_ENT":"01","CVE_MUN":"001","CVE_LOC":"0401","CVE_AGEB":"1759","CVE_MZA":"800","NOMGEO":"San Luis [Granja]","PLANO":"Croquis"}},
{"type":"Feature","geometry":{"type":"Point","coordinates":[-102.35511027783423,21.853580277507206]},"properties":{"CVEGEO":"0100104051759800","CVE_ENT":"01","CVE_MUN":"001","CVE_LOC":"0405","CVE_AGEB":"1759","CVE_MZA":"800","NOMGEO":"San Martín (La Cantera)","PLANO":"Si"}},
{"type":"Feature","geometry":{"type":"Point","coordinates":[-102.38223555573478,21.90417527787257]},"properties":{"CVEGEO":"0100104061759800","CVE_ENT":"01","CVE_MUN":"001","CVE_LOC":"0406","CVE_AGEB":"1759","CVE_MZA":"800","NOMGEO":"San Miguel","PLANO":"No"}},
{"type":"Feature","geometry":{"type":"Point","coordinates":[-102.34375166655623,21.807848333741163]},"properties":{"CVEGEO":"0100104071138800","CVE_ENT":"01","CVE_MUN":"001","CVE_LOC":"0407","CVE_AGEB":"1138","CVE_MZA":"800","NOMGEO":"San Nicolás","PLANO":"No"}},
{"type":"Feature","geometry":{"type":"Point","coordinates":[-102.33599416745452,21.828846666746287]},"properties":{"CVEGEO":"0100104081138800","CVE_ENT":"01","CVE_MUN":"001","CVE_LOC":"0408","CVE_AGEB":"1138","CVE_MZA":"800","NOMGEO":"San Pascual","PLANO":"Croquis"}},
{"type":"Feature","geometry":{"type":"Point","coordinates":[-102.4113391673978,21.71663694441371]},"properties":{"CVEGEO":"0100104101231800","CVE_ENT":"01","CVE_MUN":"001","CVE_LOC":"0410","CVE_AGEB":"1231","CVE_MZA":"800","NOMGEO":"San Pedro Cieneguilla","PLANO":"Si"}},
{"type":"Feature","geometry":{"type":"Point","coordinates":[-102.44031944430304,21.701264167002684]},"properties":{"CVEGEO":"0100104111231800","CVE_ENT":"01","CVE_MUN":"001","CVE_LOC":"0411","CVE_AGEB":"1231","CVE_MZA":"800","NOMGEO":"San Rafael I","PLANO":"No"}},
{"type":"Feature","geometry":{"type":"Point","coordinates":[-102.37668944427557,21.877223333519773]},"properties":{"CVEGEO":"0100104211068800","CVE_ENT":"01","CVE_MUN":"001","CVE_LOC":"0421","CVE_AGEB":"1068","CVE_MZA":"800","NOMGEO":"Santa Cruz de la Presa","PLANO":"No"}},
{"type":"Feature","geometry":{"type":"Point","coordinates":[-102.37915500042546,21.854966389160147]},"properties":{"CVEGEO":"0100104221068800","CVE_ENT":"01","CVE_MUN":"001","CVE_LOC":"0422","CVE_AGEB":"1068","CVE_MZA":"800","NOMGEO":"Santa Cruz de la Presa (La Tlacuacha)","PLANO":"Si"}},
{"type":"Feature","geometry":{"type":"Point","coordinates":[-102.29375805634128,21.811571944223015]},"properties":{"CVEGEO":"0100104261138800","CVE_ENT":"01","CVE_MUN":"001","CVE_LOC":"0426","CVE_AGEB":"1138","CVE_MZA":"800","NOMGEO":"Santa Gertrudis","PLANO":"No"}},
{"type":"Feature","geometry":{"type":"Point","coordinates":[-102.11372055610741,22.047284166832092]},"properties":{"CVEGEO":"0100104291886800","CVE_ENT":"01","CVE_MUN":"001","CVE_LOC":"0429","CVE_AGEB":"1886","CVE_MZA":"800","NOMGEO":"Santa María de Gallardo","PLANO":"Si"}},
{"type":"Feature","geometry":{"type":"Point","coordinates":[-102.38557972239664,21.786476111212707]},"properties":{"CVEGEO":"0100104321123800","CVE_ENT":"01","CVE_MUN":"001","CVE_LOC":"0432","CVE_AGEB":"1123","CVE_MZA":"800","NOMGEO":"Santa Teresa","PLANO":"No"}},
{"type":"Feature","geometry":{"type":"Point","coordinates":[-102.10456555593811,21.779780278168616]},"properties":{"CVEGEO":"0100104371941800","CVE_ENT":"01","CVE_MUN":"001","CVE_LOC":"0437","CVE_AGEB":"1941","CVE_MZA":"800","NOMGEO":"Soledad de Abajo","PLANO":"Si"}},
{"type":"Feature","geometry":{"type":"Point","coordinates":[-102.37976777809779,21.68371333311764]},"properties":{"CVEGEO":"0100104401246800","CVE_ENT":"01","CVE_MUN":"001","CVE_LOC":"0440","CVE_AGEB":"1246","CVE_MZA":"800","NOMGEO":"La Soledad","PLANO":"No"}},
{"type":"Feature","geometry":{"type":"Point","coordinates":[-102.37314166718137,21.707716110943636]},"properties":{"CVEGEO":"0100104441231800","CVE_ENT":"01","CVE_MUN":"001","CVE_LOC":"0444","CVE_AGEB":"1231","CVE_MZA":"800","NOMGEO":"El Tanque de los Jiménez","PLANO":"Si"}},
{"type":"Feature","geometry":{"type":"Point","coordinates":[-102.33669083287792,21.863359444548447]},"properties":{"CVEGEO":"0100104561759800","CVE_ENT":"01","CVE_MUN":"001","CVE_LOC":"0456","CVE_AGEB":"1759","CVE_MZA":"800","NOMGEO":"Tres Cruces","PLANO":"No"}},
{"type":"Feature","geometry":{"type":"Point","coordinates":[-102.18001083315761,21.891279999691005]},"properties":{"CVEGEO":"0100104611918800","CVE_ENT":"01","CVE_MUN":"001","CVE_LOC":"0461","CVE_AGEB":"1918","CVE_MZA":"800","NOMGEO":"Tanque el Trigo","PLANO":"Si"}},
{"type":"Feature","geometry":{"type":"Point","coordinates":[-102.33315888924189,21.633666666495113]},"properties":{"CVEGEO":"0100104661250800","CVE_ENT":"01","CVE_MUN":"001","CVE_LOC":"0466","CVE_AGEB":"1250","CVE_MZA":"800","NOMGEO":"El Turicate","PLANO":"Croquis"}},
{"type":"Feature","geometry":{"type":"Point","coordinates":[-102.34606388894085,21.88061888870013]},"properties":{"CVEGEO":"0100104761759800","CVE_ENT":"01","CVE_MUN":"001","CVE_LOC":"0476","CVE_AGEB":"1759","CVE_MZA":"800","NOMGEO":"La Victoria","PLANO":"No"}},
{"type":"Feature","geometry":{"type":"Point","coordinates":[-102.31078111124066,21.829498055199565]},"properties":{"CVEGEO":"0100104921138800","CVE_ENT":"01","CVE_MUN":"001","CVE_LOC":"0492","CVE_AGEB":"1138","CVE_MZA":"800","NOMGEO":"Viñedos Santa Mónica","PLANO":"Croquis"}},
{"type":"Feature","geometry":{"type":"Point","coordinates":[-102.22709083295643,21.796769999775474]},"properties":{"CVEGEO":"0100104971937800","CVE_ENT":"01","CVE_MUN":"001","CVE_LOC":"0497","CVE_AGEB":"1937","CVE_MZA":"800","NOMGEO":"Las Ánimas","PLANO":"Croquis"}},
{"type":"Feature","geometry":{"type":"Point","coordinates":[-102.40353611145262,21.787783888564082]},"properties":{"CVEGEO":"0100105061123800","CVE_ENT":"01","CVE_MUN":"001","CVE_LOC":"0506","CVE_AGEB":"1123","CVE_MZA":"800","NOMGEO":"Adame","PLANO":"No"}},
{"type":"Feature","geometry":{"type":"Point","coordinates":[-102.16701555566559,21.815789722635813]},"properties":{"CVEGEO":"0100105091937800","CVE_ENT":"01","CVE_MUN":"001","CVE_LOC":"0509","CVE_AGEB":"1937","CVE_MZA":"800","NOMGEO":"La Ahuja (Aguja)","PLANO":"No"}},
{"type":"Feature","geometry":{"type":"Point","coordinates":[-102.2122947219848,21.84222472239295]},"properties":{"CVEGEO":"0100105131937800","CVE_ENT":"01","CVE_MUN":"001","CVE_LOC":"0513","CVE_AGEB":"1937","CVE_MZA":"800","NOMGEO":"Arroyo Hondo","PLANO":"Croquis"}},
{"type":"Feature","geometry":{"type":"Point","coordinates":[-102.222327500174,21.858964722087443]},"properties":{"CVEGEO":"0100105141922800","CVE_ENT":"01","CVE_MUN":"001","CVE_LOC":"0514","CVE_AGEB":"1922","CVE_MZA":"800","NOMGEO":"Asturias","PLANO":"Si"}},
{"type":"Feature","geometry":{"type":"Point","coordinates":[-102.32226972235443,21.844344999823985]},"properties":{"CVEGEO":"0100105191138800","CVE_ENT":"01","CVE_MUN":"001","CVE_LOC":"0519","CVE_AGEB":"1138","CVE_MZA":"800","NOMGEO":"Barandales de San José","PLANO":"Si"}},
{"type":"Feature","geometry":{"type":"Point","coordinates":[-102.20391166652033,21.777294444641694]},"properties":{"CVEGEO":"0100105261212800","CVE_ENT":"01","CVE_MUN":"001","CVE_LOC":"0526","CVE_AGEB":"1212","CVE_MZA":"800","NOMGEO":"El Cardón","PLANO":"Croquis"}},
{"type":"Feature","geometry":{"type":"Point","coordinates":[-102.33247305636547,21.84509333370179]},"properties":{"CVEGEO":"0100105311138800","CVE_ENT":"01","CVE_MUN":"001","CVE_LOC":"0531","CVE_AGEB":"1138","CVE_MZA":"800","NOMGEO":"El Centavito 2","PLANO":"No"}},
{"type":"Feature","geometry":{"type":"Point","coordinates":[-102.24971416689215,21.939158055833268]},"properties":{"CVEGEO":"0100105401903800","CVE_ENT":"01","CVE_MUN":"001","CVE_LOC":"0540","CVE_AGEB":"1903","CVE_MZA":"800","NOMGEO":"Chomite","PLANO":"No"}},
{"type":"Feature","geometry":{"type":"Point","coordinates":[-102.36925777780623,21.83367388882036]},"properties":{"CVEGEO":"0100105411759800","CVE_ENT":"01","CVE_MUN":"001","CVE_LOC":"0541","CVE_AGEB":"1759","CVE_MZA":"800","NOMGEO":"Ciudad de los Niños","PLANO":"Si"}},
{"type":"Feature","geometry":{"type":"Point","coordinates":[-102.33823555635043,21.791193333687463]},"properties":{"CVEGEO":"0100105431138800","CVE_ENT":"01","CVE_MUN":"001","CVE_LOC":"0543","CVE_AGEB":"1138","CVE_MZA":"800","NOMGEO":"San José del Monte (Las Petacas)","PLANO":"Croquis"}},
{"type":"Feature","geometry":{"type":"Point","coordinates":[-102.15920694425319,21.756121111235736]},"properties":{"CVEGEO":"0100105471212800","CVE_ENT":"01","CVE_MUN":"001","CVE_LOC":"0547","CVE_AGEB":"1212","CVE_MZA":"800","NOMGEO":"La Congoja","PLANO":"No"}},
{"type":"Feature","geometry":{"type":"Point","coordinates":[-102.18596999952453,21.867906110849813]},"properties":{"CVEGEO":"0100105481918800","CVE_ENT":"01","CVE_MUN":"001","CVE_LOC":"0548","CVE_AGEB":"1918","CVE_MZA":"800","NOMGEO":"El Hotelito","PLANO":"Croquis"}},
{"type":"Feature","geometry":{"type":"Point","coordinates":[-102.31311444370077,21.819172777652163]},"properties":{"CVEGEO":"0100105551138800","CVE_ENT":"01","CVE_MUN":"001","CVE_LOC":"0555","CVE_AGEB":"1138","CVE_MZA":"800","NOMGEO":"Cuernavaca","PLANO":"No"}},
{"type":"Feature","geometry":{"type":"Point","coordinates":[-102.34633388906194,21.81997000006363]},"properties":{"CVEGEO":"0100105581138800","CVE_ENT":"01","CVE_MUN":"001","CVE_LOC":"0558","CVE_AGEB":"1138","CVE_MZA":"800","NOMGEO":"La Cueva de los Pericos (Caitaime)","PLANO":"No"}},
{"type":"Feature","geometry":{"type":"Point","coordinates":[-102.25525777841862,21.811767778115623]},"properties":{"CVEGEO":"0100105691763800","CVE_ENT":"01","CVE_MUN":"001","CVE_LOC":"0569","CVE_AGEB":"1763","CVE_MZA":"800","NOMGEO":"Los Pargas [Rancho]","PLANO":"Croquis"}},
{"type":"Feature","geometry":{"type":"Point","coordinates":[-102.34265555566137,21.67840555542334]},"properties":{"CVEGEO":"0100105721246800","CVE_ENT":"01","CVE_MUN":"001","CVE_LOC":"0572","CVE_AGEB":"1246","CVE_MZA":"800","NOMGEO":"La Esperanza","PLANO":"No"}},
{"type":"Feature","geometry":{"type":"Point","coordinates":[-102.3615861105486,21.767583333010908]},"properties":{"CVEGEO":"0100105751138800","CVE_ENT":"01","CVE_MUN":"001","CVE_LOC":"0575","CVE_AGEB":"1138","CVE_MZA":"800","NOMGEO":"Ex-Hacienda de Agostaderito","PLANO":"No"}},
{"type":"Feature","geometry":{"type":"Point","coordinates":[-102.29442166692449,21.77738027791756]},"properties":{"CVEGEO":"0100105761138800","CVE_ENT":"01","CVE_MUN":"001","CVE_LOC":"0576","CVE_AGEB":"1138","CVE_MZA":"800","NOMGEO":"Ex-Hacienda de Montoro","PLANO":"No"}},
{"type":"Feature","geometry":{"type":"Point","coordinates":[-102.15220722208632,21.746078611438254]},"properties":{"CVEGEO":"010010582127A800","CVE_ENT":"01","CVE_MUN":"001","CVE_LOC":"0582","CVE_AGEB":"127A","CVE_MZA":"800","NOMGEO":"El Fresno (Las Norias de San Bartolo)","PLANO":"No"}},
{"type":"Feature","geometry":{"type":"Point","coordinates":[-102.32750527773128,21.904644166478914]},"properties":{"CVEGEO":"0100105831759800","CVE_ENT":"01","CVE_MUN":"001","CVE_LOC":"0583","CVE_AGEB":"1759","CVE_MZA":"800","NOMGEO":"El Gavilán","PLANO":"No"}},
{"type":"Feature","geometry":{"type":"Point","coordinates":[-102.30196388897211,21.78706055590228]},"properties":{"CVEGEO":"0100105841138800","CVE_ENT":"01","CVE_MUN":"001","CVE_LOC":"0584","CVE_AGEB":"1138","CVE_MZA":"800","NOMGEO":"El Gigante (Arellano)","PLANO":"Si"}},
{"type":"Feature","geometry":{"type":"Point","coordinates":[-102.3218127781662,21.901154722088013]},"properties":{"CVEGEO":"0100105871759800","CVE_ENT":"01","CVE_MUN":"001","CVE_LOC":"0587","CVE_AGEB":"1759","CVE_MZA":"800","NOMGEO":"Granja de Jesús","PLANO":"No"}},
{"type":"Feature","geometry":{"type":"Point","coordinates":[-102.36228138915443,21.904491666984704]},"properties":{"CVEGEO":"0100105901759800","CVE_ENT":"01","CVE_MUN":"001","CVE_LOC":"0590","CVE_AGEB":"1759","CVE_MZA":"800","NOMGEO":"Rancho Galván","PLANO":"No"}},
{"type":"Feature","geometry":{"type":"Point","coordinates":[-102.2805005563522,21.761588333513433]},"properties":{"CVEGEO":"0100105931138800","CVE_ENT":"01","CVE_MUN":"001","CVE_LOC":"0593","CVE_AGEB":"1138","CVE_MZA":"800","NOMGEO":"Interpec San Marcos","PLANO":"No"}},
{"type":"Feature","geometry":{"type":"Point","coordinates":[-102.20891333338602,21.799639999550568]},"properties":{"CVEGEO":"0100105971937800","CVE_ENT":"01","CVE_MUN":"001","CVE_LOC":"0597","CVE_AGEB":"1937","CVE_MZA":"800","NOMGEO":"El Guarda","PLANO":"Si"}},
{"type":"Feature","geometry":{"type":"Point","coordinates":[-102.33186861127929,21.831857221839474]},"properties":{"CVEGEO":"0100106021138800","CVE_ENT":"01","CVE_MUN":"001","CVE_LOC":"0602","CVE_AGEB":"1138","CVE_MZA":"800","NOMGEO":"San Felipe [Rancho]","PLANO":"No"}},
{"type":"Feature","geometry":{"type":"Point","coordinates":[-102.19768666738739,21.84871805563446]},"properties":{"CVEGEO":"0100106051937800","CVE_ENT":"01","CVE_MUN":"001","CVE_LOC":"0605","CVE_AGEB":"1937","CVE_MZA":"800","NOMGEO":"El Jagüey","PLANO":"Croquis"}},
{"type":"Feature","geometry":{"type":"Point","coordinates":[-102.37328138889585,21.848340832912704]},"properties":{"CVEGEO":"0100106071759800","CVE_ENT":"01","CVE_MUN":"001","CVE_LOC":"0607","CVE_AGEB":"1759","CVE_MZA":"800","NOMGEO":"La Josefina","PLANO":"No"}},
{"type":"Feature","geometry":{"type":"Point","coordinates":[-102.16501055574746,21.764379721925714]},"properties":{"CVEGEO":"0100106091212800","CVE_ENT":"01","CVE_MUN":"001","CVE_LOC":"0609","CVE_AGEB":"1212","CVE_MZA":"800","NOMGEO":"Laguna Verde","PLANO":"No"}},
{"type":"Feature","geometry":{"type":"Point","coordinates":[-102.22062388938842,21.79229194448299]},"properties":{"CVEGEO":"0100106101937800","CVE_ENT":"01","CVE_MUN":"001","CVE_LOC":"0610","CVE_AGEB":"1937","CVE_MZA":"800","NOMGEO":"Lagunas Cuatas","PLANO":"No"}},
{"type":"Feature","geometry":{"type":"Point","coordinates":[-102.2236352779724,21.835880833615885]},"properties":{"CVEGEO":"0100106171922800","CVE_ENT":"01","CVE_MUN":"001","CVE_LOC":"0617","CVE_AGEB":"1922","CVE_MZA":"800","NOMGEO":"Loma Blanca","PLANO":"Croquis"}},
{"type":"Feature","geometry":{"type":"Point","coordinates":[-102.37246305555415,21.82785611121923]},"properties":{"CVEGEO":"0100106201759800","CVE_ENT":"01","CVE_MUN":"001","CVE_LOC":"0620","CVE_AGEB":"1759","CVE_MZA":"800","NOMGEO":"El Lucero de la Cruz","PLANO":"Si"}},
{"type":"Feature","geometry":{"type":"Point","coordinates":[-102.14716583255144,21.76060777757648]},"properties":{"CVEGEO":"0100106211212800","CVE_ENT":"01","CVE_MUN":"001","CVE_LOC":"0621","CVE_AGEB":"1212","CVE_MZA":"800","NOMGEO":"El Lucero","PLANO":"No"}},
{"type":"Feature","geometry":{"type":"Point","coordinates":[-102.27924166712363,21.760054721963897]},"properties":{"CVEGEO":"0100106311138800","CVE_ENT":"01","CVE_MUN":"001","CVE_LOC":"0631","CVE_AGEB":"1138","CVE_MZA":"800","NOMGEO":"Marisol","PLANO":"No"}},
{"type":"Feature","geometry":{"type":"Point","coordinates":[-102.26929138904103,21.816998889026575]},"properties":{"CVEGEO":"0100106321763800","CVE_ENT":"01","CVE_MUN":"001","CVE_LOC":"0632","CVE_AGEB":"1763","CVE_MZA":"800","NOMGEO":"La Media Luna","PLANO":"Croquis"}},
{"type":"Feature","geometry":{"type":"Point","coordinates":[-102.43825277830979,21.795876944343085]},"properties":{"CVEGEO":"0100106361068800","CVE_ENT":"01","CVE_MUN":"001","CVE_LOC":"0636","CVE_AGEB":"1068","CVE_MZA":"800","NOMGEO":"Rancho Legendario","PLANO":"No"}},
{"type":"Feature","geometry":{"type":"Point","coordinates":[-102.15999583336288,21.76821861105958]},"properties":{"CVEGEO":"0100106371212800","CVE_ENT":"01","CVE_MUN":"001","CVE_LOC":"0637","CVE_AGEB":"1212","CVE_MZA":"800","NOMGEO":"El Mirador","PLANO":"No"}},
{"type":"Feature","geometry":{"type":"Point","coordinates":[-102.10681305564697,21.760422222425507]},"properties":{"CVEGEO":"0100106381941800","CVE_ENT":"01","CVE_MUN":"001","CVE_LOC":"0638","CVE_AGEB":"1941","CVE_MZA":"800","NOMGEO":"El Mirasol","PLANO":"Croquis"}},
{"type":"Feature","geometry":{"type":"Point","coordinates":[-102.17543888935731,21.73499000029302]},"properties":{"CVEGEO":"010010639127A800","CVE_ENT":"01","CVE_MUN":"001","CVE_LOC":"0639","CVE_AGEB":"127A","CVE_MZA":"800","NOMGEO":"El Mitote","PLANO":"No"}},
{"type":"Feature","geometry":{"type":"Point","coordinates":[-102.31202083319191,21.772042222497905]},"properties":{"CVEGEO":"0100106481138800","CVE_ENT":"01","CVE_MUN":"001","CVE_LOC":"0648","CVE_AGEB":"1138","CVE_MZA":"800","NOMGEO":"Norias de Cedazo (Cedazo Norias de Montoro)","PLANO":"Si"}},
{"type":"Feature","geometry":{"type":"Point","coordinates":[-102.22807222161447,21.86063416677733]},"properties":{"CVEGEO":"0100106511922800","CVE_ENT":"01","CVE_MUN":"001","CVE_LOC":"0651","CVE_AGEB":"1922","CVE_MZA":"800","NOMGEO":"Ojo de Agua de Palmitas","PLANO":"Si"}},
{"type":"Feature","geometry":{"type":"Point","coordinates":[-102.35036250008713,21.882958610768107]},"properties":{"CVEGEO":"0100106521759800","CVE_ENT":"01","CVE_MUN":"001","CVE_LOC":"0652","CVE_AGEB":"1759","CVE_MZA":"800","NOMGEO":"Playas de Guadalupe","PLANO":"Croquis"}},
{"type":"Feature","geometry":{"type":"Point","coordinates":[-102.21864611086863,21.8337794440268]},"properties":{"CVEGEO":"0100106561937800","CVE_ENT":"01","CVE_MUN":"001","CVE_LOC":"0656","CVE_AGEB":"1937","CVE_MZA":"800","NOMGEO":"Paso Hondo","PLANO":"No"}},
{"type":"Feature","geometry":{"type":"Point","coordinates":[-102.3354750003139,21.901051389098036]},"properties":{"CVEGEO":"0100106571759800","CVE_ENT":"01","CVE_MUN":"001","CVE_LOC":"0657","CVE_AGEB":"1759","CVE_MZA":"800","NOMGEO":"La Perla","PLANO":"Croquis"}},
{"type":"Feature","geometry":{"type":"Point","coordinates":[-102.15628666706928,21.76307916712198]},"properties":{"CVEGEO":"0100106581212800","CVE_ENT":"01","CVE_MUN":"001","CVE_LOC":"0658","CVE_AGEB":"1212","CVE_MZA":"800","NOMGEO":"La Petaquilla (El Milagro)","PLANO":"No"}},
{"type":"Feature","geometry":{"type":"Point","coordinates":[-102.39514138851295,21.88700944413841]},"properties":{"CVEGEO":"0100106591068800","CVE_ENT":"01","CVE_MUN":"001","CVE_LOC":"0659","CVE_AGEB":"1068","CVE_MZA":"800","NOMGEO":"Lomas del Picacho","PLANO":"Si"}},
{"type":"Feature","geometry":{"type":"Point","coordinates":[-102.28075805602803,21.77643361096364]},"properties":{"CVEGEO":"0100106651138800","CVE_ENT":"01","CVE_MUN":"001","CVE_LOC":"0665","CVE_AGEB":"1138","CVE_MZA":"800","NOMGEO":"El Potrerito","PLANO":"No"}},
{"type":"Feature","geometry":{"type":"Point","coordinates":[-102.17255638900185,21.748734444431758]},"properties":{"CVEGEO":"010010667127A800","CVE_ENT":"01","CVE_MUN":"001","CVE_LOC":"0667","CVE_AGEB":"127A","CVE_MZA":"800","NOMGEO":"El Potrero Nuevo","PLANO":"Croquis"}},
{"type":"Feature","geometry":{"type":"Point","coordinates":[-102.27560222162478,21.934981944342734]},"properties":{"CVEGEO":"0100106681903800","CVE_ENT":"01","CVE_MUN":"001","CVE_LOC":"0668","CVE_AGEB":"1903","CVE_MZA":"800","NOMGEO":"Pozo Bravo [Rancho]","PLANO":"No"}},
{"type":"Feature","geometry":{"type":"Point","coordinates":[-102.22708666706897,21.828256111101634]},"properties":{"CVEGEO":"0100106821937800","CVE_ENT":"01","CVE_MUN":"001","CVE_LOC":"0682","CVE_AGEB":"1937","CVE_MZA":"800","NOMGEO":"Las Mercedes [Rancho]","PLANO":"Croquis"}},
{"type":"Feature","geometry":{"type":"Point","coordinates":[-102.40425555586043,21.687028611011062]},"properties":{"CVEGEO":"0100106941231800","CVE_ENT":"01","CVE_MUN":"001","CVE_LOC":"0694","CVE_AGEB":"1231","CVE_MZA":"800","NOMGEO":"El Rubio","PLANO":"No"}},
{"type":"Feature","geometry":{"type":"Point","coordinates":[-102.22357722194333,21.794395833491688]},"properties":{"CVEGEO":"0100106981937800","CVE_ENT":"01","CVE_MUN":"001","CVE_LOC":"0698","CVE_AGEB":"1937","CVE_MZA":"800","NOMGEO":"Sal si Puedes","PLANO":"No"}},
{"type":"Feature","geometry":{"type":"Point","coordinates":[-102.17335749975703,21.95536527784477]},"properties":{"CVEGEO":"0100107011903800","CVE_ENT":"01","CVE_MUN":"001","CVE_LOC":"0701","CVE_AGEB":"1903","CVE_MZA":"800","NOMGEO":"San Antonio Primero de los Pedroza [Congregación]","PLANO":"Si"}},
{"type":"Feature","geometry":{"type":"Point","coordinates":[-102.18499861100346,21.73965138873889]},"properties":{"CVEGEO":"010010703127A800","CVE_ENT":"01","CVE_MUN":"001","CVE_LOC":"0703","CVE_AGEB":"127A","CVE_MZA":"800","NOMGEO":"San Bartolo","PLANO":"No"}},
{"type":"Feature","geometry":{"type":"Point","coordinates":[-102.22607611104999,21.778167500344463]},"properties":{"CVEGEO":"0100107161937800","CVE_ENT":"01","CVE_MUN":"001","CVE_LOC":"0716","CVE_AGEB":"1937","CVE_MZA":"800","NOMGEO":"San Miguelito de Abajo","PLANO":"No"}},
{"type":"Feature","geometry":{"type":"Point","coordinates":[-102.21338833271774,21.961336666994026]},"properties":{"CVEGEO":"0100107201903800","CVE_ENT":"01","CVE_MUN":"001","CVE_LOC":"0720","CVE_AGEB":"1903","CVE_MZA":"800","NOMGEO":"San Nicolás de Arriba","PLANO":"Croquis"}},
{"type":"Feature","geometry":{"type":"Point","coordinates":[-102.23120388900558,21.860006110816414]},"properties":{"CVEGEO":"0100107261922800","CVE_ENT":"01","CVE_MUN":"001","CVE_LOC":"0726","CVE_AGEB":"1922","CVE_MZA":"800","NOMGEO":"Santa Clara","PLANO":"Croquis"}},
{"type":"Feature","geometry":{"type":"Point","coordinates":[-102.32522472184044,21.874899166647896]},"properties":{"CVEGEO":"0100107321759800","CVE_ENT":"01","CVE_MUN":"001","CVE_LOC":"0732","CVE_AGEB":"1759","CVE_MZA":"800","NOMGEO":"Santa Teresa [Granja]","PLANO":"No"}},
{"type":"Feature","geometry":{"type":"Point","coordinates":[-102.17094638928096,21.880791666591893]},"properties":{"CVEGEO":"0100107351918800","CVE_ENT":"01","CVE_MUN":"001","CVE_LOC":"0735","CVE_AGEB":"1918","CVE_MZA":"800","NOMGEO":"El Socorro","PLANO":"Croquis"}},
{"type":"Feature","geometry":{"type":"Point","coordinates":[-102.16331444370445,21.773232500414675]},"properties":{"CVEGEO":"0100107371212800","CVE_ENT":"01","CVE_MUN":"001","CVE_LOC":"0737","CVE_AGEB":"1212","CVE_MZA":"800","NOMGEO":"El Tacón","PLANO":"No"}},
{"type":"Feature","geometry":{"type":"Point","coordinates":[-102.23722222174226,21.791111111059546]},"properties":{"CVEGEO":"0100107421763800","CVE_ENT":"01","CVE_MUN":"001","CVE_LOC":"0742","CVE_AGEB":"1763","CVE_MZA":"800","NOMGEO":"Tanque de Guadalupe","PLANO":"No"}},
{"type":"Feature","geometry":{"type":"Point","coordinates":[-102.20725583286426,21.76413416626332]},"properties":{"CVEGEO":"0100107471212800","CVE_ENT":"01","CVE_MUN":"001","CVE_LOC":"0747","CVE_AGEB":"1212","CVE_MZA":"800","NOMGEO":"El Tepetate","PLANO":"No"}},
{"type":"Feature","geometry":{"type":"Point","coordinates":[-102.17131944420176,21.729209166296773]},"properties":{"CVEGEO":"010010753127A800","CVE_ENT":"01","CVE_MUN":"001","CVE_LOC":"0753","CVE_AGEB":"127A","CVE_MZA":"800","NOMGEO":"El Tropezón","PLANO":"No"}},
{"type":"Feature","geometry":{"type":"Point","coordinates":[-102.39187861143897,21.803323333594108]},"properties":{"CVEGEO":"0100107551123800","CVE_ENT":"01","CVE_MUN":"001","CVE_LOC":"0755","CVE_AGEB":"1123","CVE_MZA":"800","NOMGEO":"Asociación Local Ganadera de Aguascalientes (Cerro del Niágara)","PLANO":"No"}},
{"type":"Feature","geometry":{"type":"Point","coordinates":[-102.26258305631464,21.773623611269166]},"properties":{"CVEGEO":"0100107591763800","CVE_ENT":"01","CVE_MUN":"001","CVE_LOC":"0759","CVE_AGEB":"1763","CVE_MZA":"800","NOMGEO":"Esperanza [Rancho]","PLANO":"No"}},
{"type":"Feature","geometry":{"type":"Point","coordinates":[-102.15278305584052,21.71156833346598]},"properties":{"CVEGEO":"010010768127A800","CVE_ENT":"01","CVE_MUN":"001","CVE_LOC":"0768","CVE_AGEB":"127A","CVE_MZA":"800","NOMGEO":"Vista Alegre I (Bella Vista)","PLANO":"No"}},
{"type":"Feature","geometry":{"type":"Point","coordinates":[-102.2817633326809,21.789291111082928]},"properties":{"CVEGEO":"0100107691138800","CVE_ENT":"01","CVE_MUN":"001","CVE_LOC":"0769","CVE_AGEB":"1138","CVE_MZA":"800","NOMGEO":"Vista Alegre II","PLANO":"Croquis"}},
{"type":"Feature","geometry":{"type":"Point","coordinates":[-102.32744749970973,21.836695277625]},"properties":{"CVEGEO":"0100107721138800","CVE_ENT":"01","CVE_MUN":"001","CVE_LOC":"0772","CVE_AGEB":"1138","CVE_MZA":"800","NOMGEO":"San Pascual [Rancho]","PLANO":"No"}},
{"type":"Feature","geometry":{"type":"Point","coordinates":[-102.32170277817141,21.904438333030892]},"properties":{"CVEGEO":"0100107821759800","CVE_ENT":"01","CVE_MUN":"001","CVE_LOC":"0782","CVE_AGEB":"1759","CVE_MZA":"800","NOMGEO":"Granja Puente","PLANO":"No"}},
{"type":"Feature","geometry":{"type":"Point","coordinates":[-102.26989666719335,21.785565555885814]},"properties":{"CVEGEO":"0100107841763800","CVE_ENT":"01","CVE_MUN":"001","CVE_LOC":"0784","CVE_AGEB":"1763","CVE_MZA":"800","NOMGEO":"Granja Elsa","PLANO":"No"}},
{"type":"Feature","geometry":{"type":"Point","coordinates":[-102.39224527820791,21.878273610806776]},"properties":{"CVEGEO":"0100107891068800","CVE_ENT":"01","CVE_MUN":"001","CVE_LOC":"0789","CVE_AGEB":"1068","CVE_MZA":"800","NOMGEO":"Las Víboras","PLANO":"Croquis"}},
{"type":"Feature","geometry":{"type":"Point","coordinates":[-102.38397333292752,21.8865597226319]},"properties":{"CVEGEO":"0100107901068800","CVE_ENT":"01","CVE_MUN":"001","CVE_LOC":"0790","CVE_AGEB":"1068","CVE_MZA":"800","NOMGEO":"Casas Blancas","PLANO":"No"}},
{"type":"Feature","geometry":{"type":"Point","coordinates":[-102.23686944433314,21.94379111150088]},"properties":{"CVEGEO":"0100107921903800","CVE_ENT":"01","CVE_MUN":"001","CVE_LOC":"0792","CVE_AGEB":"1903","CVE_MZA":"800","NOMGEO":"El Chiflido","PLANO":"Croquis"}},
{"type":"Feature","geometry":{"type":"Point","coordinates":[-102.12079305597827,21.787826388751892]},"properties":{"CVEGEO":"0100107931941800","CVE_ENT":"01","CVE_MUN":"001","CVE_LOC":"0793","CVE_AGEB":"1941","CVE_MZA":"800","NOMGEO":"Los Hernández","PLANO":"Croquis"}},
{"type":"Feature","geometry":{"type":"Point","coordinates":[-102.10116083346792,21.77929611110518]},"properties":{"CVEGEO":"0100107951941800","CVE_ENT":"01","CVE_MUN":"001","CVE_LOC":"0795","CVE_AGEB":"1941","CVE_MZA":"800","NOMGEO":"El Ranchito (El Mocho)","PLANO":"No"}},
{"type":"Feature","geometry":{"type":"Point","coordinates":[-102.32814416674914,21.833261389250165]},"properties":{"CVEGEO":"0100108151138800","CVE_ENT":"01","CVE_MUN":"001","CVE_LOC":"0815","CVE_AGEB":"1138","CVE_MZA":"800","NOMGEO":"Los Barroso","PLANO":"Croquis"}},
{"type":"Feature","geometry":{"type":"Point","coordinates":[-102.34985916677829,21.8169369447815]},"properties":{"CVEGEO":"0100108161123800","CVE_ENT":"01","CVE_MUN":"001","CVE_LOC":"0816","CVE_AGEB":"1123","CVE_MZA":"800","NOMGEO":"San José de Buenavista","PLANO":"No"}},
{"type":"Feature","geometry":{"type":"Point","coordinates":[-102.44783305608074,21.716428889108055]},"properties":{"CVEGEO":"0100108621180800","CVE_ENT":"01","CVE_MUN":"001","CVE_LOC":"0862","CVE_AGEB":"1180","CVE_MZA":"800","NOMGEO":"Cieneguilla (La Hacienda)","PLANO":"No"}},
{"type":"Feature","geometry":{"type":"Point","coordinates":[-102.26939944380268,21.752720555292544]},"properties":{"CVEGEO":"0100108631763800","CVE_ENT":"01","CVE_MUN":"001","CVE_LOC":"0863","CVE_AGEB":"1763","CVE_MZA":"800","NOMGEO":"Cotorina (Coyotes)","PLANO":"Si"}},
{"type":"Feature","geometry":{"type":"Point","coordinates":[-102.3760669436578,21.832530000102214]},"properties":{"CVEGEO":"0100108641759800","CVE_ENT":"01","CVE_MUN":"001","CVE_LOC":"0864","CVE_AGEB":"1759","CVE_MZA":"800","NOMGEO":"La Cotorra","PLANO":"No"}},
{"type":"Feature","geometry":{"type":"Point","coordinates":[-102.11975861072263,22.004680833534554]},"properties":{"CVEGEO":"0100108651886800","CVE_ENT":"01","CVE_MUN":"001","CVE_LOC":"0865","CVE_AGEB":"1886","CVE_MZA":"800","NOMGEO":"La Coyotera","PLANO":"No"}},
{"type":"Feature","geometry":{"type":"Point","coordinates":[-102.3021313892846,21.75648222206639]},"properties":{"CVEGEO":"0100108661138800","CVE_ENT":"01","CVE_MUN":"001","CVE_LOC":"0866","CVE_AGEB":"1138","CVE_MZA":"800","NOMGEO":"Montoro (Mesa del Salto)","PLANO":"Si"}},
{"type":"Feature","geometry":{"type":"Point","coordinates":[-102.46700222163525,21.803753055354406]},"properties":{"CVEGEO":"0100108701068800","CVE_ENT":"01","CVE_MUN":"001","CVE_LOC":"0870","CVE_AGEB":"1068","CVE_MZA":"800","NOMGEO":"Puerto de Nieto [Rancho]","PLANO":"No"}},
{"type":"Feature","geometry":{"type":"Point","coordinates":[-102.09814416701467,21.99198916697452]},"properties":{"CVEGEO":"0100108741886800","CVE_ENT":"01","CVE_MUN":"001","CVE_LOC":"0874","CVE_AGEB":"1886","CVE_MZA":"800","NOMGEO":"Las Tinajas","PLANO":"No"}},
{"type":"Feature","geometry":{"type":"Point","coordinates":[-102.28176055608377,21.766716388614693]},"properties":{"CVEGEO":"0100108761138800","CVE_ENT":"01","CVE_MUN":"001","CVE_LOC":"0876","CVE_AGEB":"1138","CVE_MZA":"800","NOMGEO":"Acapulco","PLANO":"No"}},
{"type":"Feature","geometry":{"type":"Point","coordinates":[-102.37356416710784,21.828030555432495]},"properties":{"CVEGEO":"0100108801759800","CVE_ENT":"01","CVE_MUN":"001","CVE_LOC":"0880","CVE_AGEB":"1759","CVE_MZA":"800","NOMGEO":"Las Aguilillas","PLANO":"Croquis"}},
{"type":"Feature","geometry":{"type":"Point","coordinates":[-102.2204241673839,21.85888277810681]},"properties":{"CVEGEO":"0100108821922800","CVE_ENT":"01","CVE_MUN":"001","CVE_LOC":"0882","CVE_AGEB":"1922","CVE_MZA":"800","NOMGEO":"Los Amarraderos","PLANO":"No"}},
{"type":"Feature","geometry":{"type":"Point","coordinates":[-102.28627500039002,21.940181666435304]},"properties":{"CVEGEO":"0100108851903800","CVE_ENT":"01","CVE_MUN":"001","CVE_LOC":"0885","CVE_AGEB":"1903","CVE_MZA":"800","NOMGEO":"Interpec San Marcos","PLANO":"Croquis"}},
{"type":"Feature","geometry":{"type":"Point","coordinates":[-102.23070444438346,21.83588194480908]},"properties":{"CVEGEO":"0100108861922800","CVE_ENT":"01","CVE_MUN":"001","CVE_LOC":"0886","CVE_AGEB":"1922","CVE_MZA":"800","NOMGEO":"El Bambú","PLANO":"Croquis"}},
{"type":"Feature","geometry":{"type":"Point","coordinates":[-102.18348111099722,21.98754972228574]},"properties":{"CVEGEO":"0100108871890800","CVE_ENT":"01","CVE_MUN":"001","CVE_LOC":"0887","CVE_AGEB":"1890","CVE_MZA":"800","NOMGEO":"El Becerro","PLANO":"No"}},
{"type":"Feature","geometry":{"type":"Point","coordinates":[-102.17952749973449,21.99066500012579]},"properties":{"CVEGEO":"0100108881890800","CVE_ENT":"01","CVE_MUN":"001","CVE_LOC":"0888","CVE_AGEB":"1890","CVE_MZA":"800","NOMGEO":"El Becerro (Lucio Gutiérrez)","PLANO":"No"}},
{"type":"Feature","geometry":{"type":"Point","coordinates":[-102.09561194444458,21.789926388656376]},"properties":{"CVEGEO":"0100108891941800","CVE_ENT":"01","CVE_MUN":"001","CVE_LOC":"0889","CVE_AGEB":"1941","CVE_MZA":"800","NOMGEO":"Bella Vista (El Coronel)","PLANO":"No"}},
{"type":"Feature","geometry":{"type":"Point","coordinates":[-102.12905944389388,22.00781499971244]},"properties":{"CVEGEO":"0100108901886800","CVE_ENT":"01","CVE_MUN":"001","CVE_LOC":"0890","CVE_AGEB":"1886","CVE_MZA":"800","NOMGEO":"La Biznaga","PLANO":"No"}},
{"type":"Feature","geometry":{"type":"Point","coordinates":[-102.28600083280385,21.75884166668561]},"properties":{"CVEGEO":"0100108911138800","CVE_ENT":"01","CVE_MUN":"001","CVE_LOC":"0891","CVE_AGEB":"1138","CVE_MZA":"800","NOMGEO":"Los Pavorreales","PLANO":"No"}},
{"type":"Feature","geometry":{"type":"Point","coordinates":[-102.3511136110807,21.789799444567485]},"properties":{"CVEGEO":"0100108921138800","CVE_ENT":"01","CVE_MUN":"001","CVE_LOC":"0892","CVE_AGEB":"1138","CVE_MZA":"800","NOMGEO":"Las Bugambilias","PLANO":"No"}},
{"type":"Feature","geometry":{"type":"Point","coordinates":[-102.23330638902588,21.79333694480407]},"properties":{"CVEGEO":"0100108931937800","CVE_ENT":"01","CVE_MUN":"001","CVE_LOC":"0893","CVE_AGEB":"1937","CVE_MZA":"800","NOMGEO":"Los Cables","PLANO":"No"}},
{"type":"Feature","geometry":{"type":"Point","coordinates":[-102.19099972159201,21.729075833052356]},"properties":{"CVEGEO":"010010894127A800","CVE_ENT":"01","CVE_MUN":"001","CVE_LOC":"0894","CVE_AGEB":"127A","CVE_MZA":"800","NOMGEO":"Las Cabras","PLANO":"No"}},
{"type":"Feature","geometry":{"type":"Point","coordinates":[-102.16733083257014,21.742410278109745]},"properties":{"CVEGEO":"010010895127A800","CVE_ENT":"01","CVE_MUN":"001","CVE_LOC":"0895","CVE_AGEB":"127A","CVE_MZA":"800","NOMGEO":"La Cachucha (El Salero)","PLANO":"No"}},
{"type":"Feature","geometry":{"type":"Point","coordinates":[-102.14454361134557,22.01035722190855]},"properties":{"CVEGEO":"0100109001886800","CVE_ENT":"01","CVE_MUN":"001","CVE_LOC":"0900","CVE_AGEB":"1886","CVE_MZA":"800","NOMGEO":"La Campostela","PLANO":"No"}},
{"type":"Feature","geometry":{"type":"Point","coordinates":[-102.22329722183748,21.999006943988494]},"properties":{"CVEGEO":"0100109011890800","CVE_ENT":"01","CVE_MUN":"001","CVE_LOC":"0901","CVE_AGEB":"1890","CVE_MZA":"800","NOMGEO":"Plan de la Canaleja","PLANO":"No"}},
{"type":"Feature","geometry":{"type":"Point","coordinates":[-102.14778444441566,21.782090277449516]},"properties":{"CVEGEO":"0100109031941800","CVE_ENT":"01","CVE_MUN":"001","CVE_LOC":"0903","CVE_AGEB":"1941","CVE_MZA":"800","NOMGEO":"El Capirote","PLANO":"Croquis"}},
{"type":"Feature","geometry":{"type":"Point","coordinates":[-102.17729055566151,21.823499166949276]},"properties":{"CVEGEO":"0100109041937800","CVE_ENT":"01","CVE_MUN":"001","CVE_LOC":"0904","CVE_AGEB":"1937","CVE_MZA":"800","NOMGEO":"El Caracol (La Mesa)","PLANO":"No"}},
{"type":"Feature","geometry":{"type":"Point","coordinates":[-102.26682638880158,21.82221722250129]},"properties":{"CVEGEO":"0100109051922800","CVE_ENT":"01","CVE_MUN":"001","CVE_LOC":"0905","CVE_AGEB":"1922","CVE_MZA":"800","NOMGEO":"Benjamín Chávez Ruiz [Rancho]","PLANO":"No"}},
{"type":"Feature","geometry":{"type":"Point","coordinates":[-102.36305277800736,21.796218333428207]},"properties":{"CVEGEO":"0100109061123800","CVE_ENT":"01","CVE_MUN":"001","CVE_LOC":"0906","CVE_AGEB":"1123","CVE_MZA":"800","NOMGEO":"Castillo Fontenac","PLANO":"No"}},
{"type":"Feature","geometry":{"type":"Point","coordinates":[-102.07555555581489,21.79277777800217]},"properties":{"CVEGEO":"0100109071941800","CVE_ENT":"01","CVE_MUN":"001","CVE_LOC":"0907","CVE_AGEB":"1941","CVE_MZA":"800","NOMGEO":"El Catorce","PLANO":"No"}},
{"type":"Feature","geometry":{"type":"Point","coordinates":[-102.3718213891777,21.8829530559877]},"properties":{"CVEGEO":"0100109081759800","CVE_ENT":"01","CVE_MUN":"001","CVE_LOC":"0908","CVE_AGEB":"1759","CVE_MZA":"800","NOMGEO":"Ninguno [Centro de Readaptación de Mínima Seguridad]","PLANO":"No"}},
{"type":"Feature","geometry":{"type":"Point","coordinates":[-102.39030472159627,21.88799583294339]},"properties":{"CVEGEO":"0100109091068800","CVE_ENT":"01","CVE_MUN":"001","CVE_LOC":"0909","CVE_AGEB":"1068","CVE_MZA":"800","NOMGEO":"Ninguno [Centro de Estudios Diferenciados]","PLANO":"No"}},
{"type":"Feature","geometry":{"type":"Point","coordinates":[-102.35576750032192,21.839091943975237]},"properties":{"CVEGEO":"0100109121759800","CVE_ENT":"01","CVE_MUN":"001","CVE_LOC":"0912","CVE_AGEB":"1759","CVE_MZA":"800","NOMGEO":"Dr. Gustavo León Mojica García [Hospital Psiquiatría]","PLANO":"No"}},
{"type":"Feature","geometry":{"type":"Point","coordinates":[-102.17417472169522,21.936707778049815]},"properties":{"CVEGEO":"0100109141903800","CVE_ENT":"01","CVE_MUN":"001","CVE_LOC":"0914","CVE_AGEB":"1903","CVE_MZA":"800","NOMGEO":"Las Tres Potencias","PLANO":"No"}},
{"type":"Feature","geometry":{"type":"Point","coordinates":[-102.25725055615307,21.803809999820018]},"properties":{"CVEGEO":"0100109151763800","CVE_ENT":"01","CVE_MUN":"001","CVE_LOC":"0915","CVE_AGEB":"1763","CVE_MZA":"800","NOMGEO":"San Pedro [Rancho]","PLANO":"No"}},
{"type":"Feature","geometry":{"type":"Point","coordinates":[-102.31326749973782,21.793500277828194]},"properties":{"CVEGEO":"0100109171138800","CVE_ENT":"01","CVE_MUN":"001","CVE_LOC":"0917","CVE_AGEB":"1138","CVE_MZA":"800","NOMGEO":"El Copete","PLANO":"No"}},
{"type":"Feature","geometry":{"type":"Point","coordinates":[-102.14700611053682,21.768581110962444]},"properties":{"CVEGEO":"0100109181941800","CVE_ENT":"01","CVE_MUN":"001","CVE_LOC":"0918","CVE_AGEB":"1941","CVE_MZA":"800","NOMGEO":"El Copetillo","PLANO":"No"}},
{"type":"Feature","geometry":{"type":"Point","coordinates":[-102.26205749975858,21.758116667051116]},"properties":{"CVEGEO":"0100109191763800","CVE_ENT":"01","CVE_MUN":"001","CVE_LOC":"0919","CVE_AGEB":"1763","CVE_MZA":"800","NOMGEO":"Cotorina de Altamira","PLANO":"Croquis"}},
{"type":"Feature","geometry":{"type":"Point","coordinates":[-102.23003083268287,21.85733166671416]},"properties":{"CVEGEO":"0100109201922800","CVE_ENT":"01","CVE_MUN":"001","CVE_LOC":"0920","CVE_AGEB":"1922","CVE_MZA":"800","NOMGEO":"Ojo de Agua de Palmitas(Las Crucitas) [Segunda Sección]","PLANO":"Croquis"}},
{"type":"Feature","geometry":{"type":"Point","coordinates":[-102.1550669437963,21.773443056007952]},"properties":{"CVEGEO":"0100109211941800","CVE_ENT":"01","CVE_MUN":"001","CVE_LOC":"0921","CVE_AGEB":"1941","CVE_MZA":"800","NOMGEO":"El Crucero","PLANO":"No"}},
{"type":"Feature","geometry":{"type":"Point","coordinates":[-102.18118388947799,21.865678611151097]},"properties":{"CVEGEO":"0100109221918800","CVE_ENT":"01","CVE_MUN":"001","CVE_LOC":"0922","CVE_AGEB":"1918","CVE_MZA":"800","NOMGEO":"El Crucero de Calvillito","PLANO":"Croquis"}},
{"type":"Feature","geometry":{"type":"Point","coordinates":[-102.45381888930059,21.678923889161155]},"properties":{"CVEGEO":"0100109251231800","CVE_ENT":"01","CVE_MUN":"001","CVE_LOC":"0925","CVE_AGEB":"1231","CVE_MZA":"800","NOMGEO":"La Chiripa","PLANO":"No"}},
{"type":"Feature","geometry":{"type":"Point","coordinates":[-102.37193916652134,21.901594444475037]},"properties":{"CVEGEO":"0100109351759800","CVE_ENT":"01","CVE_MUN":"001","CVE_LOC":"0935","CVE_AGEB":"1759","CVE_MZA":"800","NOMGEO":"La Esperanza","PLANO":"No"}},
{"type":"Feature","geometry":{"type":"Point","coordinates":[-102.34944861118609,21.67771555573636]},"properties":{"CVEGEO":"0100109361246800","CVE_ENT":"01","CVE_MUN":"001","CVE_LOC":"0936","CVE_AGEB":"1246","CVE_MZA":"800","NOMGEO":"San Carlos","PLANO":"No"}},
{"type":"Feature","geometry":{"type":"Point","coordinates":[-102.14285416735022,21.73152972229437]},"properties":{"CVEGEO":"010010938127A800","CVE_ENT":"01","CVE_MUN":"001","CVE_LOC":"0938","CVE_AGEB":"127A","CVE_MZA":"800","NOMGEO":"La Estancia","PLANO":"No"}},
{"type":"Feature","geometry":{"type":"Point","coordinates":[-102.33635138938787,21.63761583316319]},"properties":{"CVEGEO":"0100109421250800","CVE_ENT":"01","CVE_MUN":"001","CVE_LOC":"0942","CVE_AGEB":"1250","CVE_MZA":"800","NOMGEO":"La Florida","PLANO":"No"}},
{"type":"Feature","geometry":{"type":"Point","coordinates":[-102.36643305648451,21.853857777648678]},"properties":{"CVEGEO":"0100109431759800","CVE_ENT":"01","CVE_MUN":"001","CVE_LOC":"0943","CVE_AGEB":"1759","CVE_MZA":"800","NOMGEO":"La Florida","PLANO":"No"}},
{"type":"Feature","geometry":{"type":"Point","coordinates":[-102.37462027790923,21.869752221958244]},"properties":{"CVEGEO":"0100109441068800","CVE_ENT":"01","CVE_MUN":"001","CVE_LOC":"0944","CVE_AGEB":"1068","CVE_MZA":"800","NOMGEO":"La Fortuna (La Herradura)","PLANO":"No"}},
{"type":"Feature","geometry":{"type":"Point","coordinates":[-102.22887944398863,21.84534638873618]},"properties":{"CVEGEO":"0100109511922800","CVE_ENT":"01","CVE_MUN":"001","CVE_LOC":"0951","CVE_AGEB":"1922","CVE_MZA":"800","NOMGEO":"Las Dos Peñas Meyeras","PLANO":"No"}},
{"type":"Feature","geometry":{"type":"Point","coordinates":[-102.21764472194613,21.85429111106738]},"properties":{"CVEGEO":"0100109571922800","CVE_ENT":"01","CVE_MUN":"001","CVE_LOC":"0957","CVE_AGEB":"1922","CVE_MZA":"800","NOMGEO":"La Paloma","PLANO":"No"}},
{"type":"Feature","geometry":{"type":"Point","coordinates":[-102.37552611103638,21.90700305547795]},"properties":{"CVEGEO":"0100109621759800","CVE_ENT":"01","CVE_MUN":"001","CVE_LOC":"0962","CVE_AGEB":"1759","CVE_MZA":"800","NOMGEO":"El Changay","PLANO":"No"}},
{"type":"Feature","geometry":{"type":"Point","coordinates":[-102.3027724996431,21.833992221892892]},"properties":{"CVEGEO":"0100109641138800","CVE_ENT":"01","CVE_MUN":"001","CVE_LOC":"0964","CVE_AGEB":"1138","CVE_MZA":"800","NOMGEO":"El Monte [Granja]","PLANO":"No"}},
{"type":"Feature","geometry":{"type":"Point","coordinates":[-102.32647888905242,21.893029444804323]},"properties":{"CVEGEO":"0100109671759800","CVE_ENT":"01","CVE_MUN":"001","CVE_LOC":"0967","CVE_AGEB":"1759","CVE_MZA":"800","NOMGEO":"La Providencia [Granja]","PLANO":"No"}},
{"type":"Feature","geometry":{"type":"Point","coordinates":[-102.3589325002699,21.783551388647354]},"properties":{"CVEGEO":"0100109681123800","CVE_ENT":"01","CVE_MUN":"001","CVE_LOC":"0968","CVE_AGEB":"1123","CVE_MZA":"800","NOMGEO":"Los Lirios [Granja]","PLANO":"No"}},
{"type":"Feature","geometry":{"type":"Point","coordinates":[-102.34446055641534,21.709763333374138]},"properties":{"CVEGEO":"0100109791246800","CVE_ENT":"01","CVE_MUN":"001","CVE_LOC":"0979","CVE_AGEB":"1246","CVE_MZA":"800","NOMGEO":"El Huizachal","PLANO":"No"}},
{"type":"Feature","geometry":{"type":"Point","coordinates":[-102.32769027829332,21.826747778175797]},"properties":{"CVEGEO":"0100109801138800","CVE_ENT":"01","CVE_MUN":"001","CVE_LOC":"0980","CVE_AGEB":"1138","CVE_MZA":"800","NOMGEO":"Las Isabeles","PLANO":"No"}},
{"type":"Feature","geometry":{"type":"Point","coordinates":[-102.14817750022478,21.993031111024628]},"properties":{"CVEGEO":"0100109811890800","CVE_ENT":"01","CVE_MUN":"001","CVE_LOC":"0981","CVE_AGEB":"1890","CVE_MZA":"800","NOMGEO":"El Refugio","PLANO":"No"}},
{"type":"Feature","geometry":{"type":"Point","coordinates":[-102.18906444438514,21.852392777664566]},"properties":{"CVEGEO":"0100109821918800","CVE_ENT":"01","CVE_MUN":"001","CVE_LOC":"0982","CVE_AGEB":"1918","CVE_MZA":"800","NOMGEO":"La Laguna de los Adobes","PLANO":"Croquis"}},
{"type":"Feature","geometry":{"type":"Point","coordinates":[-102.15038499953482,21.778689444440964]},"properties":{"CVEGEO":"0100109851941800","CVE_ENT":"01","CVE_MUN":"001","CVE_LOC":"0985","CVE_AGEB":"1941","CVE_MZA":"800","NOMGEO":"Los Lirios","PLANO":"No"}},
{"type":"Feature","geometry":{"type":"Point","coordinates":[-102.13050277848592,21.99110527742104]},"properties":{"CVEGEO":"0100109871886800","CVE_ENT":"01","CVE_MUN":"001","CVE_LOC":"0987","CVE_AGEB":"1886","CVE_MZA":"800","NOMGEO":"El Jardín","PLANO":"No"}},
{"type":"Feature","geometry":{"type":"Point","coordinates":[-102.26097444394038,21.778242499914075]},"properties":{"CVEGEO":"0100109881763800","CVE_ENT":"01","CVE_MUN":"001","CVE_LOC":"0988","CVE_AGEB":"1763","CVE_MZA":"800","NOMGEO":"Lomas de Arellano","PLANO":"Si"}},
{"type":"Feature","geometry":{"type":"Point","coordinates":[-102.26819555588754,21.796906388567923]},"properties":{"CVEGEO":"0100109921763800","CVE_ENT":"01","CVE_MUN":"001","CVE_LOC":"0992","CVE_AGEB":"1763","CVE_MZA":"800","NOMGEO":"Lotes de Arellano","PLANO":"Si"}},
{"type":"Feature","geometry":{"type":"Point","coordinates":[-102.43818555620089,21.802602222641557]},"properties":{"CVEGEO":"0100109961068800","CVE_ENT":"01","CVE_MUN":"001","CVE_LOC":"0996","CVE_AGEB":"1068","CVE_MZA":"800","NOMGEO":"Las Marías (Las 3 Marías)","PLANO":"No"}},
{"type":"Feature","geometry":{"type":"Point","coordinates":[-102.37596750028875,21.874937777575433]},"properties":{"CVEGEO":"0100109971068800","CVE_ENT":"01","CVE_MUN":"001","CVE_LOC":"0997","CVE_AGEB":"1068","CVE_MZA":"800","NOMGEO":"Marlborito","PLANO":"No"}},
{"type":"Feature","geometry":{"type":"Point","coordinates":[-102.36849638880759,21.89417722189124]},"properties":{"CVEGEO":"0100109991759800","CVE_ENT":"01","CVE_MUN":"001","CVE_LOC":"0999","CVE_AGEB":"1759","CVE_MZA":"800","NOMGEO":"Los Membrillos","PLANO":"No"}},
{"type":"Feature","geometry":{"type":"Point","coordinates":[-102.27772277769516,21.76060416693219]},"properties":{"CVEGEO":"0100110001763800","CVE_ENT":"01","CVE_MUN":"001","CVE_LOC":"1000","CVE_AGEB":"1763","CVE_MZA":"800","NOMGEO":"Mesa del Salto [Fracción de Montoro]","PLANO":"No"}},
{"type":"Feature","geometry":{"type":"Point","coordinates":[-102.18087499959786,21.823376944343234]},"properties":{"CVEGEO":"0100110021937800","CVE_ENT":"01","CVE_MUN":"001","CVE_LOC":"1002","CVE_AGEB":"1937","CVE_MZA":"800","NOMGEO":"La Mesa","PLANO":"Croquis"}},
{"type":"Feature","geometry":{"type":"Point","coordinates":[-102.36963638898705,21.847366666745803]},"properties":{"CVEGEO":"0100110031759800","CVE_ENT":"01","CVE_MUN":"001","CVE_LOC":"1003","CVE_AGEB":"1759","CVE_MZA":"800","NOMGEO":"El Mirador","PLANO":"Croquis"}},
{"type":"Feature","geometry":{"type":"Point","coordinates":[-102.30098500011427,21.79825611109909]},"properties":{"CVEGEO":"0100110051138800","CVE_ENT":"01","CVE_MUN":"001","CVE_LOC":"1005","CVE_AGEB":"1138","CVE_MZA":"800","NOMGEO":"El Misterio","PLANO":"No"}},
{"type":"Feature","geometry":{"type":"Point","coordinates":[-102.23526833260911,21.79541222251966]},"properties":{"CVEGEO":"0100110071937800","CVE_ENT":"01","CVE_MUN":"001","CVE_LOC":"1007","CVE_AGEB":"1937","CVE_MZA":"800","NOMGEO":"El Molino","PLANO":"No"}},
{"type":"Feature","geometry":{"type":"Point","coordinates":[-102.37651638878029,21.850470833162195]},"properties":{"CVEGEO":"0100110101068800","CVE_ENT":"01","CVE_MUN":"001","CVE_LOC":"1010","CVE_AGEB":"1068","CVE_MZA":"800","NOMGEO":"Nochtli","PLANO":"No"}},
{"type":"Feature","geometry":{"type":"Point","coordinates":[-102.36823250001599,21.89657555569792]},"properties":{"CVEGEO":"0100110121759800","CVE_ENT":"01","CVE_MUN":"001","CVE_LOC":"1012","CVE_AGEB":"1759","CVE_MZA":"800","NOMGEO":"Los Olivos [Granja]","PLANO":"No"}},
{"type":"Feature","geometry":{"type":"Point","coordinates":[-102.09249722247014,21.79309777805716]},"properties":{"CVEGEO":"0100110131941800","CVE_ENT":"01","CVE_MUN":"001","CVE_LOC":"1013","CVE_AGEB":"1941","CVE_MZA":"800","NOMGEO":"Los Órganos","PLANO":"No"}},
{"type":"Feature","geometry":{"type":"Point","coordinates":[-102.22500000023675,21.790277777502187]},"properties":{"CVEGEO":"0100110191937800","CVE_ENT":"01","CVE_MUN":"001","CVE_LOC":"1019","CVE_AGEB":"1937","CVE_MZA":"800","NOMGEO":"El Paraíso [Rancho]","PLANO":"Croquis"}},
{"type":"Feature","geometry":{"type":"Point","coordinates":[-102.24394666667884,21.846391389178223]},"properties":{"CVEGEO":"0100110211922800","CVE_ENT":"01","CVE_MUN":"001","CVE_LOC":"1021","CVE_AGEB":"1922","CVE_MZA":"800","NOMGEO":"El Pirul","PLANO":"No"}},
{"type":"Feature","geometry":{"type":"Point","coordinates":[-102.22798444380653,21.80153833355409]},"properties":{"CVEGEO":"0100110221937800","CVE_ENT":"01","CVE_MUN":"001","CVE_LOC":"1022","CVE_AGEB":"1937","CVE_MZA":"800","NOMGEO":"El Pirul (El Pirulito) [Rancho]","PLANO":"No"}},
{"type":"Feature","geometry":{"type":"Point","coordinates":[-102.18079722225401,22.00118611096237]},"properties":{"CVEGEO":"0100110241890800","CVE_ENT":"01","CVE_MUN":"001","CVE_LOC":"1024","CVE_AGEB":"1890","CVE_MZA":"800","NOMGEO":"El Plan del Horno","PLANO":"No"}},
{"type":"Feature","geometry":{"type":"Point","coordinates":[-102.16843388929348,21.776960555589362]},"properties":{"CVEGEO":"0100110261937800","CVE_ENT":"01","CVE_MUN":"001","CVE_LOC":"1026","CVE_AGEB":"1937","CVE_MZA":"800","NOMGEO":"El Pozo","PLANO":"No"}},
{"type":"Feature","geometry":{"type":"Point","coordinates":[-102.15080416678936,21.721044722506345]},"properties":{"CVEGEO":"010011027127A800","CVE_ENT":"01","CVE_MUN":"001","CVE_LOC":"1027","CVE_AGEB":"127A","CVE_MZA":"800","NOMGEO":"Potrero Grande","PLANO":"Croquis"}},
{"type":"Feature","geometry":{"type":"Point","coordinates":[-102.37373583289398,21.84500611107076]},"properties":{"CVEGEO":"0100110291759800","CVE_ENT":"01","CVE_MUN":"001","CVE_LOC":"1029","CVE_AGEB":"1759","CVE_MZA":"800","NOMGEO":"Presa Nueva","PLANO":"No"}},
{"type":"Feature","geometry":{"type":"Point","coordinates":[-102.34579777799667,21.708695833040117]},"properties":{"CVEGEO":"0100110351246800","CVE_ENT":"01","CVE_MUN":"001","CVE_LOC":"1035","CVE_AGEB":"1246","CVE_MZA":"800","NOMGEO":"La Providencia","PLANO":"Croquis"}},
{"type":"Feature","geometry":{"type":"Point","coordinates":[-102.40663444358412,21.65929000008318]},"properties":{"CVEGEO":"0100110371246800","CVE_ENT":"01","CVE_MUN":"001","CVE_LOC":"1037","CVE_AGEB":"1246","CVE_MZA":"800","NOMGEO":"La Puerta de las Alazanas","PLANO":"No"}},
{"type":"Feature","geometry":{"type":"Point","coordinates":[-102.20684555594924,21.947893888489467]},"properties":{"CVEGEO":"0100110381903800","CVE_ENT":"01","CVE_MUN":"001","CVE_LOC":"1038","CVE_AGEB":"1903","CVE_MZA":"800","NOMGEO":"Puerta de los Viejitos","PLANO":"No"}},
{"type":"Feature","geometry":{"type":"Point","coordinates":[-102.33655388901776,22.156592222547623]},"properties":{"CVEGEO":"0100703520078800","CVE_ENT":"01","CVE_MUN":"007","CVE_LOC":"0352","CVE_AGEB":"0078","CVE_MZA":"800","NOMGEO":"El Buitre","PLANO":"No"}},
{"type":"Feature","geometry":{"type":"Point","coordinates":[-102.37729333258588,21.82981305570689]},"properties":{"CVEGEO":"0100110391759800","CVE_ENT":"01","CVE_MUN":"001","CVE_LOC":"1039","CVE_AGEB":"1759","CVE_MZA":"800","NOMGEO":"Casa Blanca","PLANO":"No"}},
{"type":"Feature","geometry":{"type":"Point","coordinates":[-102.16497722224751,21.81953138923511]},"properties":{"CVEGEO":"0100110411937800","CVE_ENT":"01","CVE_MUN":"001","CVE_LOC":"1041","CVE_AGEB":"1937","CVE_MZA":"800","NOMGEO":"Dos Arbolitos [Rancho]","PLANO":"No"}},
{"type":"Feature","geometry":{"type":"Point","coordinates":[-102.35299361054143,21.874678055539558]},"properties":{"CVEGEO":"0100110431759800","CVE_ENT":"01","CVE_MUN":"001","CVE_LOC":"1043","CVE_AGEB":"1759","CVE_MZA":"800","NOMGEO":"El Carmen [Rancho]","PLANO":"No"}},
{"type":"Feature","geometry":{"type":"Point","coordinates":[-102.20803666669107,21.944970277803417]},"properties":{"CVEGEO":"0100110471903800","CVE_ENT":"01","CVE_MUN":"001","CVE_LOC":"1047","CVE_AGEB":"1903","CVE_MZA":"800","NOMGEO":"El Venado [Rancho]","PLANO":"No"}},
{"type":"Feature","geometry":{"type":"Point","coordinates":[-102.21929722162892,21.97221888872851]},"properties":{"CVEGEO":"0100110481903800","CVE_ENT":"01","CVE_MUN":"001","CVE_LOC":"1048","CVE_AGEB":"1903","CVE_MZA":"800","NOMGEO":"San Nicolás de Arriba","PLANO":"Croquis"}},
{"type":"Feature","geometry":{"type":"Point","coordinates":[-102.29045611129868,21.75617333315739]},"properties":{"CVEGEO":"0100110501138800","CVE_ENT":"01","CVE_MUN":"001","CVE_LOC":"1050","CVE_AGEB":"1138","CVE_MZA":"800","NOMGEO":"Ex-Hacienda Montoro [Granjas]","PLANO":"No"}},
{"type":"Feature","geometry":{"type":"Point","coordinates":[-102.34589055632006,21.909958610958533]},"properties":{"CVEGEO":"0100110511759800","CVE_ENT":"01","CVE_MUN":"001","CVE_LOC":"1051","CVE_AGEB":"1759","CVE_MZA":"800","NOMGEO":"La Estrella [Rancho]","PLANO":"Croquis"}},
{"type":"Feature","geometry":{"type":"Point","coordinates":[-102.30668250020476,21.832375833229456]},"properties":{"CVEGEO":"0100110521138800","CVE_ENT":"01","CVE_MUN":"001","CVE_LOC":"1052","CVE_AGEB":"1138","CVE_MZA":"800","NOMGEO":"La Luz [Rancho]","PLANO":"Croquis"}},
{"type":"Feature","geometry":{"type":"Point","coordinates":[-102.33458388896669,21.71423638888619]},"properties":{"CVEGEO":"0100110531246800","CVE_ENT":"01","CVE_MUN":"001","CVE_LOC":"1053","CVE_AGEB":"1246","CVE_MZA":"800","NOMGEO":"La Manga [Rancho]","PLANO":"No"}},
{"type":"Feature","geometry":{"type":"Point","coordinates":[-102.28287694352849,21.765774722310866]},"properties":{"CVEGEO":"0100110541138800","CVE_ENT":"01","CVE_MUN":"001","CVE_LOC":"1054","CVE_AGEB":"1138","CVE_MZA":"800","NOMGEO":"La Mesa","PLANO":"No"}},
{"type":"Feature","geometry":{"type":"Point","coordinates":[-102.34071638915262,21.674675555832007]},"properties":{"CVEGEO":"0100110551250800","CVE_ENT":"01","CVE_MUN":"001","CVE_LOC":"1055","CVE_AGEB":"1250","CVE_MZA":"800","NOMGEO":"Primavera [Rancho]","PLANO":"No"}},
{"type":"Feature","geometry":{"type":"Point","coordinates":[-102.27421361091731,21.95442083327943]},"properties":{"CVEGEO":"0100110561903800","CVE_ENT":"01","CVE_MUN":"001","CVE_LOC":"1056","CVE_AGEB":"1903","CVE_MZA":"800","NOMGEO":"Los Boyuyos [Rancho]","PLANO":"No"}},
{"type":"Feature","geometry":{"type":"Point","coordinates":[-102.33437500015535,21.717249443999147]},"properties":{"CVEGEO":"0100110581246800","CVE_ENT":"01","CVE_MUN":"001","CVE_LOC":"1058","CVE_AGEB":"1246","CVE_MZA":"800","NOMGEO":"El Mitawa [Rancho]","PLANO":"No"}},
{"type":"Feature","geometry":{"type":"Point","coordinates":[-102.17651638854188,21.955514999779997]},"properties":{"CVEGEO":"0100110591903800","CVE_ENT":"01","CVE_MUN":"001","CVE_LOC":"1059","CVE_AGEB":"1903","CVE_MZA":"800","NOMGEO":"Rancho Nuevo","PLANO":"No"}},
{"type":"Feature","geometry":{"type":"Point","coordinates":[-102.35840444425646,21.80610750005622]},"properties":{"CVEGEO":"0100110621123800","CVE_ENT":"01","CVE_MUN":"001","CVE_LOC":"1062","CVE_AGEB":"1123","CVE_MZA":"800","NOMGEO":"San Carlos [Rancho]","PLANO":"No"}},
{"type":"Feature","geometry":{"type":"Point","coordinates":[-102.34185583259126,21.751303056041284]},"properties":{"CVEGEO":"0100110641246800","CVE_ENT":"01","CVE_MUN":"001","CVE_LOC":"1064","CVE_AGEB":"1246","CVE_MZA":"800","NOMGEO":"San Jacinto [Rancho]","PLANO":"No"}},
{"type":"Feature","geometry":{"type":"Point","coordinates":[-102.41673638898591,21.794947778127046]},"properties":{"CVEGEO":"0100110651068800","CVE_ENT":"01","CVE_MUN":"001","CVE_LOC":"1065","CVE_AGEB":"1068","CVE_MZA":"800","NOMGEO":"San Gerónimo","PLANO":"Croquis"}},
{"type":"Feature","geometry":{"type":"Point","coordinates":[-102.16679694405481,21.79484722214191]},"properties":{"CVEGEO":"0100110661937800","CVE_ENT":"01","CVE_MUN":"001","CVE_LOC":"1066","CVE_AGEB":"1937","CVE_MZA":"800","NOMGEO":"Don Fidencio [Rancho]","PLANO":"No"}},
{"type":"Feature","geometry":{"type":"Point","coordinates":[-102.21699666661968,21.85157805571187]},"properties":{"CVEGEO":"0100110671922800","CVE_ENT":"01","CVE_MUN":"001","CVE_LOC":"1067","CVE_AGEB":"1922","CVE_MZA":"800","NOMGEO":"Ninguno","PLANO":"No"}},
{"type":"Feature","geometry":{"type":"Point","coordinates":[-102.197041110886,21.9976497223419]},"properties":{"CVEGEO":"0100110701890800","CVE_ENT":"01","CVE_MUN":"001","CVE_LOC":"1070","CVE_AGEB":"1890","CVE_MZA":"800","NOMGEO":"Topogigio [Rancho]","PLANO":"Croquis"}},
{"type":"Feature","geometry":{"type":"Point","coordinates":[-102.22899361056767,21.805865832901286]},"properties":{"CVEGEO":"0100110731937800","CVE_ENT":"01","CVE_MUN":"001","CVE_LOC":"1073","CVE_AGEB":"1937","CVE_MZA":"800","NOMGEO":"El Refugio II","PLANO":"No"}},
{"type":"Feature","geometry":{"type":"Point","coordinates":[-102.22050888897138,21.845989444414112]},"properties":{"CVEGEO":"0100110751922800","CVE_ENT":"01","CVE_MUN":"001","CVE_LOC":"1075","CVE_AGEB":"1922","CVE_MZA":"800","NOMGEO":"El Relicario","PLANO":"Si"}},
{"type":"Feature","geometry":{"type":"Point","coordinates":[-102.20520111094793,21.795465832860184]},"properties":{"CVEGEO":"0100110771937800","CVE_ENT":"01","CVE_MUN":"001","CVE_LOC":"1077","CVE_AGEB":"1937","CVE_MZA":"800","NOMGEO":"La Rinconada (La Escondida)","PLANO":"Croquis"}},
{"type":"Feature","geometry":{"type":"Point","coordinates":[-102.23142499952452,21.931352778241003]},"properties":{"CVEGEO":"0100110801903800","CVE_ENT":"01","CVE_MUN":"001","CVE_LOC":"1080","CVE_AGEB":"1903","CVE_MZA":"800","NOMGEO":"San Isidro de los Esparza","PLANO":"No"}},
{"type":"Feature","geometry":{"type":"Point","coordinates":[-102.15842694376816,22.0158297219271]},"properties":{"CVEGEO":"0100110831886800","CVE_ENT":"01","CVE_MUN":"001","CVE_LOC":"1083","CVE_AGEB":"1886","CVE_MZA":"800","NOMGEO":"San Isidro [La Estación]","PLANO":"No"}},
{"type":"Feature","geometry":{"type":"Point","coordinates":[-102.14791583327141,22.011206944080406]},"properties":{"CVEGEO":"0100110851886800","CVE_ENT":"01","CVE_MUN":"001","CVE_LOC":"1085","CVE_AGEB":"1886","CVE_MZA":"800","NOMGEO":"San Cristóbal","PLANO":"No"}},
{"type":"Feature","geometry":{"type":"Point","coordinates":[-102.23270944412984,21.946040277384775]},"properties":{"CVEGEO":"0100110861903800","CVE_ENT":"01","CVE_MUN":"001","CVE_LOC":"1086","CVE_AGEB":"1903","CVE_MZA":"800","NOMGEO":"San Nicolás de en Medio","PLANO":"Croquis"}},
{"type":"Feature","geometry":{"type":"Point","coordinates":[-102.12541444406882,21.770868055320893]},"properties":{"CVEGEO":"0100110921941800","CVE_ENT":"01","CVE_MUN":"001","CVE_LOC":"1092","CVE_AGEB":"1941","CVE_MZA":"800","NOMGEO":"San José del Cono","PLANO":"No"}},
{"type":"Feature","geometry":{"type":"Point","coordinates":[-102.32392250017048,21.642105277975038]},"properties":{"CVEGEO":"0100110941250800","CVE_ENT":"01","CVE_MUN":"001","CVE_LOC":"1094","CVE_AGEB":"1250","CVE_MZA":"800","NOMGEO":"San Isidro","PLANO":"No"}},
{"type":"Feature","geometry":{"type":"Point","coordinates":[-102.26820944381903,21.792918611349563]},"properties":{"CVEGEO":"0100110981763800","CVE_ENT":"01","CVE_MUN":"001","CVE_LOC":"1098","CVE_AGEB":"1763","CVE_MZA":"800","NOMGEO":"San Martín","PLANO":"No"}},
{"type":"Feature","geometry":{"type":"Point","coordinates":[-102.30500527773543,21.75613361121796]},"properties":{"CVEGEO":"0100110991138800","CVE_ENT":"01","CVE_MUN":"001","CVE_LOC":"1099","CVE_AGEB":"1138","CVE_MZA":"800","NOMGEO":"San Isidro (Granja Santa Anita)","PLANO":"No"}},
{"type":"Feature","geometry":{"type":"Point","coordinates":[-102.29639555553504,21.763967499559445]},"properties":{"CVEGEO":"0100111011138800","CVE_ENT":"01","CVE_MUN":"001","CVE_LOC":"1101","CVE_AGEB":"1138","CVE_MZA":"800","NOMGEO":"San Miguel","PLANO":"No"}},
{"type":"Feature","geometry":{"type":"Point","coordinates":[-102.37550027810208,21.84528527814208]},"properties":{"CVEGEO":"0100111021068800","CVE_ENT":"01","CVE_MUN":"001","CVE_LOC":"1102","CVE_AGEB":"1068","CVE_MZA":"800","NOMGEO":"San Andrés","PLANO":"Croquis"}},
{"type":"Feature","geometry":{"type":"Point","coordinates":[-102.36738611099283,21.889572499696772]},"properties":{"CVEGEO":"0100111031759800","CVE_ENT":"01","CVE_MUN":"001","CVE_LOC":"1103","CVE_AGEB":"1759","CVE_MZA":"800","NOMGEO":"Viñedos San Felipe [Segunda Sección]","PLANO":"No"}},
{"type":"Feature","geometry":{"type":"Point","coordinates":[-102.35242500014719,21.900387499674604]},"properties":{"CVEGEO":"0100111041759800","CVE_ENT":"01","CVE_MUN":"001","CVE_LOC":"1104","CVE_AGEB":"1759","CVE_MZA":"800","NOMGEO":"San Judas","PLANO":"No"}},
{"type":"Feature","geometry":{"type":"Point","coordinates":[-102.37040277826833,21.84139000028727]},"properties":{"CVEGEO":"0100111051759800","CVE_ENT":"01","CVE_MUN":"001","CVE_LOC":"1105","CVE_AGEB":"1759","CVE_MZA":"800","NOMGEO":"San Nicolás de la Cantera","PLANO":"No"}},
{"type":"Feature","geometry":{"type":"Point","coordinates":[-102.212498611361,21.79293472222377]},"properties":{"CVEGEO":"0100111091937800","CVE_ENT":"01","CVE_MUN":"001","CVE_LOC":"1109","CVE_AGEB":"1937","CVE_MZA":"800","NOMGEO":"La Santa Cruz","PLANO":"No"}},
{"type":"Feature","geometry":{"type":"Point","coordinates":[-102.12427555629655,21.786381388808284]},"properties":{"CVEGEO":"0100111121941800","CVE_ENT":"01","CVE_MUN":"001","CVE_LOC":"1112","CVE_AGEB":"1941","CVE_MZA":"800","NOMGEO":"Santa Elena","PLANO":"No"}},
{"type":"Feature","geometry":{"type":"Point","coordinates":[-102.313301111361,21.652507500448703]},"properties":{"CVEGEO":"0100111131250800","CVE_ENT":"01","CVE_MUN":"001","CVE_LOC":"1113","CVE_AGEB":"1250","CVE_MZA":"800","NOMGEO":"Santa Elena (Tres Pelonas)","PLANO":"Croquis"}},
{"type":"Feature","geometry":{"type":"Point","coordinates":[-102.3317097219096,21.652818888740917]},"properties":{"CVEGEO":"0100111141250800","CVE_ENT":"01","CVE_MUN":"001","CVE_LOC":"1114","CVE_AGEB":"1250","CVE_MZA":"800","NOMGEO":"Santa Inés","PLANO":"No"}},
{"type":"Feature","geometry":{"type":"Point","coordinates":[-102.33478000009059,21.663482778211897]},"properties":{"CVEGEO":"0100111151250800","CVE_ENT":"01","CVE_MUN":"001","CVE_LOC":"1115","CVE_AGEB":"1250","CVE_MZA":"800","NOMGEO":"Santa Teresa","PLANO":"No"}},
{"type":"Feature","geometry":{"type":"Point","coordinates":[-102.31929805583113,21.811141110965558]},"properties":{"CVEGEO":"0100111161138800","CVE_ENT":"01","CVE_MUN":"001","CVE_LOC":"1116","CVE_AGEB":"1138","CVE_MZA":"800","NOMGEO":"El Carmen","PLANO":"Croquis"}},
{"type":"Feature","geometry":{"type":"Point","coordinates":[-102.19120083345689,21.999303332847155]},"properties":{"CVEGEO":"0100111191890800","CVE_ENT":"01","CVE_MUN":"001","CVE_LOC":"1119","CVE_AGEB":"1890","CVE_MZA":"800","NOMGEO":"El Sabino (San Román)","PLANO":"Croquis"}},
{"type":"Feature","geometry":{"type":"Point","coordinates":[-102.1631588890679,22.001557221885296]},"properties":{"CVEGEO":"0100111201886800","CVE_ENT":"01","CVE_MUN":"001","CVE_LOC":"1120","CVE_AGEB":"1886","CVE_MZA":"800","NOMGEO":"El Sauz Amarillo","PLANO":"No"}},
{"type":"Feature","geometry":{"type":"Point","coordinates":[-102.16423777768358,21.741954443961337]},"properties":{"CVEGEO":"010011123127A800","CVE_ENT":"01","CVE_MUN":"001","CVE_LOC":"1123","CVE_AGEB":"127A","CVE_MZA":"800","NOMGEO":"El Salero","PLANO":"Croquis"}},
{"type":"Feature","geometry":{"type":"Point","coordinates":[-102.34161444411964,21.9187044440503]},"properties":{"CVEGEO":"0100111271759800","CVE_ENT":"01","CVE_MUN":"001","CVE_LOC":"1127","CVE_AGEB":"1759","CVE_MZA":"800","NOMGEO":"Sandovales de Abajo","PLANO":"Croquis"}},
{"type":"Feature","geometry":{"type":"Point","coordinates":[-102.21633361073077,21.79596555545834]},"properties":{"CVEGEO":"0100111311937800","CVE_ENT":"01","CVE_MUN":"001","CVE_LOC":"1131","CVE_AGEB":"1937","CVE_MZA":"800","NOMGEO":"El Gato","PLANO":"Croquis"}},
{"type":"Feature","geometry":{"type":"Point","coordinates":[-102.3704683326397,21.691892221995005]},"properties":{"CVEGEO":"0100111331246800","CVE_ENT":"01","CVE_MUN":"001","CVE_LOC":"1133","CVE_AGEB":"1246","CVE_MZA":"800","NOMGEO":"Tanque de la Cruz","PLANO":"No"}},
{"type":"Feature","geometry":{"type":"Point","coordinates":[-102.15598111110863,22.01112166656324]},"properties":{"CVEGEO":"0100111361886800","CVE_ENT":"01","CVE_MUN":"001","CVE_LOC":"1136","CVE_AGEB":"1886","CVE_MZA":"800","NOMGEO":"La Tijera","PLANO":"No"}},
{"type":"Feature","geometry":{"type":"Point","coordinates":[-102.28012305566148,21.94100972192161]},"properties":{"CVEGEO":"0100111391903800","CVE_ENT":"01","CVE_MUN":"001","CVE_LOC":"1139","CVE_AGEB":"1903","CVE_MZA":"800","NOMGEO":"Biourbe","PLANO":"No"}},
{"type":"Feature","geometry":{"type":"Point","coordinates":[-102.34954055566443,21.667929722541878]},"properties":{"CVEGEO":"0100111401250800","CVE_ENT":"01","CVE_MUN":"001","CVE_LOC":"1140","CVE_AGEB":"1250","CVE_MZA":"800","NOMGEO":"San José de las Laborcillas (La Casa de Piedra)","PLANO":"No"}},
{"type":"Feature","geometry":{"type":"Point","coordinates":[-102.33040777786286,21.74642861135543]},"properties":{"CVEGEO":"0100111421138800","CVE_ENT":"01","CVE_MUN":"001","CVE_LOC":"1142","CVE_AGEB":"1138","CVE_MZA":"800","NOMGEO":"Las Trojes","PLANO":"No"}},
{"type":"Feature","geometry":{"type":"Point","coordinates":[-102.3824088888122,21.833145278028574]},"properties":{"CVEGEO":"0100111451759800","CVE_ENT":"01","CVE_MUN":"001","CVE_LOC":"1145","CVE_AGEB":"1759","CVE_MZA":"800","NOMGEO":"El Varal","PLANO":"No"}},
{"type":"Feature","geometry":{"type":"Point","coordinates":[-102.37608027843773,21.83357388915086]},"properties":{"CVEGEO":"0100111471759800","CVE_ENT":"01","CVE_MUN":"001","CVE_LOC":"1147","CVE_AGEB":"1759","CVE_MZA":"800","NOMGEO":"El Columpio","PLANO":"No"}},
{"type":"Feature","geometry":{"type":"Point","coordinates":[-102.35816444380214,21.87957888881706]},"properties":{"CVEGEO":"0100111481759800","CVE_ENT":"01","CVE_MUN":"001","CVE_LOC":"1148","CVE_AGEB":"1759","CVE_MZA":"800","NOMGEO":"Derivados de Fruta","PLANO":"No"}},
{"type":"Feature","geometry":{"type":"Point","coordinates":[-102.29318444381309,21.943598611221027]},"properties":{"CVEGEO":"0100111501903800","CVE_ENT":"01","CVE_MUN":"001","CVE_LOC":"1150","CVE_AGEB":"1903","CVE_MZA":"800","NOMGEO":"Villa-Eguia [Centro de Convenciones]","PLANO":"No"}},
{"type":"Feature","geometry":{"type":"Point","coordinates":[-102.32468444405917,21.82051944454852]},"properties":{"CVEGEO":"0100111511138800","CVE_ENT":"01","CVE_MUN":"001","CVE_LOC":"1151","CVE_AGEB":"1138","CVE_MZA":"800","NOMGEO":"El Tajo [Viñedos]","PLANO":"No"}},
{"type":"Feature","geometry":{"type":"Point","coordinates":[-102.29658888907731,21.815301389240744]},"properties":{"CVEGEO":"0100111521138800","CVE_ENT":"01","CVE_MUN":"001","CVE_LOC":"1152","CVE_AGEB":"1138","CVE_MZA":"800","NOMGEO":"San Francisco (Las Cochineras) [Viñedos]","PLANO":"No"}},
{"type":"Feature","geometry":{"type":"Point","coordinates":[-102.26021222224053,21.817356666992822]},"properties":{"CVEGEO":"0100111571922800","CVE_ENT":"01","CVE_MUN":"001","CVE_LOC":"1157","CVE_AGEB":"1922","CVE_MZA":"800","NOMGEO":"Las Violetas","PLANO":"Si"}},
{"type":"Feature","geometry":{"type":"Point","coordinates":[-102.35785694389111,21.77515194434219]},"properties":{"CVEGEO":"0100111581138800","CVE_ENT":"01","CVE_MUN":"001","CVE_LOC":"1158","CVE_AGEB":"1138","CVE_MZA":"800","NOMGEO":"Las Víboras","PLANO":"No"}},
{"type":"Feature","geometry":{"type":"Point","coordinates":[-102.27925388855805,21.74617972224162]},"properties":{"CVEGEO":"0100111591763800","CVE_ENT":"01","CVE_MUN":"001","CVE_LOC":"1159","CVE_AGEB":"1763","CVE_MZA":"800","NOMGEO":"Villa Su","PLANO":"No"}},
{"type":"Feature","geometry":{"type":"Point","coordinates":[-102.36997305623359,21.866531944008187]},"properties":{"CVEGEO":"0100111601759800","CVE_ENT":"01","CVE_MUN":"001","CVE_LOC":"1160","CVE_AGEB":"1759","CVE_MZA":"800","NOMGEO":"Granja Claudia","PLANO":"No"}},
{"type":"Feature","geometry":{"type":"Point","coordinates":[-102.15484555567264,21.747535000321506]},"properties":{"CVEGEO":"010011161127A800","CVE_ENT":"01","CVE_MUN":"001","CVE_LOC":"1161","CVE_AGEB":"127A","CVE_MZA":"800","NOMGEO":"El Yerbaníz","PLANO":"Croquis"}},
{"type":"Feature","geometry":{"type":"Point","coordinates":[-102.21880027828902,21.816924444734944]},"properties":{"CVEGEO":"0100111651937800","CVE_ENT":"01","CVE_MUN":"001","CVE_LOC":"1165","CVE_AGEB":"1937","CVE_MZA":"800","NOMGEO":"Azarco","PLANO":"No"}},
{"type":"Feature","geometry":{"type":"Point","coordinates":[-102.3359430564326,21.809474444050775]},"properties":{"CVEGEO":"0100111661138800","CVE_ENT":"01","CVE_MUN":"001","CVE_LOC":"1166","CVE_AGEB":"1138","CVE_MZA":"800","NOMGEO":"San José de Buenavista","PLANO":"Croquis"}},
{"type":"Feature","geometry":{"type":"Point","coordinates":[-102.18725583341114,21.77980194439298]},"properties":{"CVEGEO":"0100111671212800","CVE_ENT":"01","CVE_MUN":"001","CVE_LOC":"1167","CVE_AGEB":"1212","CVE_MZA":"800","NOMGEO":"La Cañada de las Habas","PLANO":"Croquis"}},
{"type":"Feature","geometry":{"type":"Point","coordinates":[-102.32771194415454,21.787683055273952]},"properties":{"CVEGEO":"0100111681138800","CVE_ENT":"01","CVE_MUN":"001","CVE_LOC":"1168","CVE_AGEB":"1138","CVE_MZA":"800","NOMGEO":"El Carmen","PLANO":"No"}},
{"type":"Feature","geometry":{"type":"Point","coordinates":[-102.28180888938668,21.71126166678831]},"properties":{"CVEGEO":"0100111721250800","CVE_ENT":"01","CVE_MUN":"001","CVE_LOC":"1172","CVE_AGEB":"1250","CVE_MZA":"800","NOMGEO":"Ex-Hacienda de Peñuelas","PLANO":"No"}},
{"type":"Feature","geometry":{"type":"Point","coordinates":[-102.35619027828639,21.78010222199173]},"properties":{"CVEGEO":"0100111781138800","CVE_ENT":"01","CVE_MUN":"001","CVE_LOC":"1178","CVE_AGEB":"1138","CVE_MZA":"800","NOMGEO":"Granjas Fátima","PLANO":"Si"}},
{"type":"Feature","geometry":{"type":"Point","coordinates":[-102.24277083324603,21.80573027772004]},"properties":{"CVEGEO":"0100111791937800","CVE_ENT":"01","CVE_MUN":"001","CVE_LOC":"1179","CVE_AGEB":"1937","CVE_MZA":"800","NOMGEO":"Los Guerrero","PLANO":"Si"}},
{"type":"Feature","geometry":{"type":"Point","coordinates":[-102.27422027831514,21.848163889031802]},"properties":{"CVEGEO":"0100111801922800","CVE_ENT":"01","CVE_MUN":"001","CVE_LOC":"1180","CVE_AGEB":"1922","CVE_MZA":"800","NOMGEO":"Tres Elenas","PLANO":"No"}},
{"type":"Feature","geometry":{"type":"Point","coordinates":[-102.21162999965273,21.809938888491665]},"properties":{"CVEGEO":"0100111811937800","CVE_ENT":"01","CVE_MUN":"001","CVE_LOC":"1181","CVE_AGEB":"1937","CVE_MZA":"800","NOMGEO":"Lomas del Guarda","PLANO":"Croquis"}},
{"type":"Feature","geometry":{"type":"Point","coordinates":[-102.18474499990909,21.787320555230444]},"properties":{"CVEGEO":"0100111821212800","CVE_ENT":"01","CVE_MUN":"001","CVE_LOC":"1182","CVE_AGEB":"1212","CVE_MZA":"800","NOMGEO":"Mesa del Tepetate","PLANO":"Croquis"}},
{"type":"Feature","geometry":{"type":"Point","coordinates":[-102.25999361099859,21.79160194482882]},"properties":{"CVEGEO":"0100111831763800","CVE_ENT":"01","CVE_MUN":"001","CVE_LOC":"1183","CVE_AGEB":"1763","CVE_MZA":"800","NOMGEO":"Lomas de Nueva York","PLANO":"Si"}},
{"type":"Feature","geometry":{"type":"Point","coordinates":[-102.32068694442137,21.72517611119793]},"properties":{"CVEGEO":"0100111841246800","CVE_ENT":"01","CVE_MUN":"001","CVE_LOC":"1184","CVE_AGEB":"1246","CVE_MZA":"800","NOMGEO":"Parque Industrial de Logística Automotriz (PILA)","PLANO":"Si"}},
{"type":"Feature","geometry":{"type":"Point","coordinates":[-102.13723972229978,21.784493055582605]},"properties":{"CVEGEO":"0100111861941800","CVE_ENT":"01","CVE_MUN":"001","CVE_LOC":"1186","CVE_AGEB":"1941","CVE_MZA":"800","NOMGEO":"San Francisquito (Los Salazar)","PLANO":"No"}},
{"type":"Feature","geometry":{"type":"Point","coordinates":[-102.33509222201337,21.843100277811146]},"properties":{"CVEGEO":"0100111871138800","CVE_ENT":"01","CVE_MUN":"001","CVE_LOC":"1187","CVE_AGEB":"1138","CVE_MZA":"800","NOMGEO":"San Juan del Río","PLANO":"No"}},
{"type":"Feature","geometry":{"type":"Point","coordinates":[-102.32069916680592,21.812875000440325]},"properties":{"CVEGEO":"0100111901138800","CVE_ENT":"01","CVE_MUN":"001","CVE_LOC":"1190","CVE_AGEB":"1138","CVE_MZA":"800","NOMGEO":"Santa María","PLANO":"Croquis"}},
{"type":"Feature","geometry":{"type":"Point","coordinates":[-102.12744222234164,21.780494444754357]},"properties":{"CVEGEO":"0100120011941800","CVE_ENT":"01","CVE_MUN":"001","CVE_LOC":"2001","CVE_AGEB":"1941","CVE_MZA":"800","NOMGEO":"La Lagunita","PLANO":"No"}},
{"type":"Feature","geometry":{"type":"Point","coordinates":[-102.38787194380183,21.865144444566315]},"properties":{"CVEGEO":"0100120031068800","CVE_ENT":"01","CVE_MUN":"001","CVE_LOC":"2003","CVE_AGEB":"1068","CVE_MZA":"800","NOMGEO":"San Martín (El Zorrillo)","PLANO":"Croquis"}},
{"type":"Feature","geometry":{"type":"Point","coordinates":[-102.38961666688219,21.858069722538765]},"properties":{"CVEGEO":"0100120041068800","CVE_ENT":"01","CVE_MUN":"001","CVE_LOC":"2004","CVE_AGEB":"1068","CVE_MZA":"800","NOMGEO":"La Nueva Teresa","PLANO":"Si"}},
{"type":"Feature","geometry":{"type":"Point","coordinates":[-102.28708944414515,21.760454721779904]},"properties":{"CVEGEO":"0100120081138800","CVE_ENT":"01","CVE_MUN":"001","CVE_LOC":"2008","CVE_AGEB":"1138","CVE_MZA":"800","NOMGEO":"Mayito [Rancho]","PLANO":"No"}},
{"type":"Feature","geometry":{"type":"Point","coordinates":[-102.33172888902205,21.90676999985911]},"properties":{"CVEGEO":"0100120101759800","CVE_ENT":"01","CVE_MUN":"001","CVE_LOC":"2010","CVE_AGEB":"1759","CVE_MZA":"800","NOMGEO":"El Vergel (El Paraíso)","PLANO":"No"}},
{"type":"Feature","geometry":{"type":"Point","coordinates":[-102.2112088894444,22.002748055978156]},"properties":{"CVEGEO":"0100120151890800","CVE_ENT":"01","CVE_MUN":"001","CVE_LOC":"2015","CVE_AGEB":"1890","CVE_MZA":"800","NOMGEO":"La Alcaparra","PLANO":"No"}},
{"type":"Feature","geometry":{"type":"Point","coordinates":[-102.21871333300113,21.900833610718507]},"properties":{"CVEGEO":"0100120161918800","CVE_ENT":"01","CVE_MUN":"001","CVE_LOC":"2016","CVE_AGEB":"1918","CVE_MZA":"800","NOMGEO":"Ampliación de Calvillito (Colonia la Herrada)","PLANO":"Si"}},
{"type":"Feature","geometry":{"type":"Point","coordinates":[-102.17894638856285,21.958419444191613]},"properties":{"CVEGEO":"0100120171903800","CVE_ENT":"01","CVE_MUN":"001","CVE_LOC":"2017","CVE_AGEB":"1903","CVE_MZA":"800","NOMGEO":"Ampliación del Conejal","PLANO":"No"}},
{"type":"Feature","geometry":{"type":"Point","coordinates":[-102.19349305586618,21.87773055540246]},"properties":{"CVEGEO":"0100120181918800","CVE_ENT":"01","CVE_MUN":"001","CVE_LOC":"2018","CVE_AGEB":"1918","CVE_MZA":"800","NOMGEO":"Bajío de los Carreones","PLANO":"No"}},
{"type":"Feature","geometry":{"type":"Point","coordinates":[-102.13160777779949,22.05722333319694]},"properties":{"CVEGEO":"0100120191886800","CVE_ENT":"01","CVE_MUN":"001","CVE_LOC":"2019","CVE_AGEB":"1886","CVE_MZA":"800","NOMGEO":"La Sociedad","PLANO":"No"}},
{"type":"Feature","geometry":{"type":"Point","coordinates":[-102.37646527832322,21.873728055774873]},"properties":{"CVEGEO":"0100120201068800","CVE_ENT":"01","CVE_MUN":"001","CVE_LOC":"2020","CVE_AGEB":"1068","CVE_MZA":"800","NOMGEO":"Buenavista","PLANO":"No"}},
{"type":"Feature","geometry":{"type":"Point","coordinates":[-102.37245722221753,21.837008055303926]},"properties":{"CVEGEO":"0100120211759800","CVE_ENT":"01","CVE_MUN":"001","CVE_LOC":"2021","CVE_AGEB":"1759","CVE_MZA":"800","NOMGEO":"La Cabaña","PLANO":"Croquis"}},
{"type":"Feature","geometry":{"type":"Point","coordinates":[-102.24275777839495,21.84647972215602]},"properties":{"CVEGEO":"0100120221922800","CVE_ENT":"01","CVE_MUN":"001","CVE_LOC":"2022","CVE_AGEB":"1922","CVE_MZA":"800","NOMGEO":"La Calandria","PLANO":"Croquis"}},
{"type":"Feature","geometry":{"type":"Point","coordinates":[-102.18106833287845,21.790573889002292]},"properties":{"CVEGEO":"0100120231212800","CVE_ENT":"01","CVE_MUN":"001","CVE_LOC":"2023","CVE_AGEB":"1212","CVE_MZA":"800","NOMGEO":"Cañada del Duraznillo","PLANO":"No"}},
{"type":"Feature","geometry":{"type":"Point","coordinates":[-102.20211472203891,21.78692333331108]},"properties":{"CVEGEO":"0100120241212800","CVE_ENT":"01","CVE_MUN":"001","CVE_LOC":"2024","CVE_AGEB":"1212","CVE_MZA":"800","NOMGEO":"Cañada Grande","PLANO":"Croquis"}},
{"type":"Feature","geometry":{"type":"Point","coordinates":[-102.14616999970353,21.777014167136453]},"properties":{"CVEGEO":"0100120261941800","CVE_ENT":"01","CVE_MUN":"001","CVE_LOC":"2026","CVE_AGEB":"1941","CVE_MZA":"800","NOMGEO":"El Ocal (El Capirote)","PLANO":"Croquis"}},
{"type":"Feature","geometry":{"type":"Point","coordinates":[-102.43318249973375,21.792917222437545]},"properties":{"CVEGEO":"0100120281123800","CVE_ENT":"01","CVE_MUN":"001","CVE_LOC":"2028","CVE_AGEB":"1123","CVE_MZA":"800","NOMGEO":"El 14","PLANO":"No"}},
{"type":"Feature","geometry":{"type":"Point","coordinates":[-102.34665861098028,21.8492811113485]},"properties":{"CVEGEO":"0100120301759800","CVE_ENT":"01","CVE_MUN":"001","CVE_LOC":"2030","CVE_AGEB":"1759","CVE_MZA":"800","NOMGEO":"Granja Margarita (Viñedos Aguascalientes)","PLANO":"No"}},
{"type":"Feature","geometry":{"type":"Point","coordinates":[-102.34628527781507,21.902956944790734]},"properties":{"CVEGEO":"0100120311759800","CVE_ENT":"01","CVE_MUN":"001","CVE_LOC":"2031","CVE_AGEB":"1759","CVE_MZA":"800","NOMGEO":"Los Olivos [Privada]","PLANO":"No"}},
{"type":"Feature","geometry":{"type":"Point","coordinates":[-102.22694694446464,21.951307222475386]},"properties":{"CVEGEO":"0100120321903800","CVE_ENT":"01","CVE_MUN":"001","CVE_LOC":"2032","CVE_AGEB":"1903","CVE_MZA":"800","NOMGEO":"El Chamizal","PLANO":"Croquis"}},
{"type":"Feature","geometry":{"type":"Point","coordinates":[-102.3927038887027,21.74380305514743]},"properties":{"CVEGEO":"0100120331123800","CVE_ENT":"01","CVE_MUN":"001","CVE_LOC":"2033","CVE_AGEB":"1123","CVE_MZA":"800","NOMGEO":"La Chaveña (El Potrerito)","PLANO":"No"}},
{"type":"Feature","geometry":{"type":"Point","coordinates":[-102.1561836107926,21.80527416684824]},"properties":{"CVEGEO":"0100120351941800","CVE_ENT":"01","CVE_MUN":"001","CVE_LOC":"2035","CVE_AGEB":"1941","CVE_MZA":"800","NOMGEO":"El Chiflido","PLANO":"No"}},
{"type":"Feature","geometry":{"type":"Point","coordinates":[-102.16619027838162,21.771888333516085]},"properties":{"CVEGEO":"0100120361937800","CVE_ENT":"01","CVE_MUN":"001","CVE_LOC":"2036","CVE_AGEB":"1937","CVE_MZA":"800","NOMGEO":"La Chiripa","PLANO":"No"}},
{"type":"Feature","geometry":{"type":"Point","coordinates":[-102.24405277770438,21.84584833329222]},"properties":{"CVEGEO":"0100120371922800","CVE_ENT":"01","CVE_MUN":"001","CVE_LOC":"2037","CVE_AGEB":"1922","CVE_MZA":"800","NOMGEO":"El Chorizo","PLANO":"Croquis"}},
{"type":"Feature","geometry":{"type":"Point","coordinates":[-102.21745444374946,21.851694167091082]},"properties":{"CVEGEO":"0100120381922800","CVE_ENT":"01","CVE_MUN":"001","CVE_LOC":"2038","CVE_AGEB":"1922","CVE_MZA":"800","NOMGEO":"Granja Llamas","PLANO":"No"}},
{"type":"Feature","geometry":{"type":"Point","coordinates":[-102.36812166677423,21.855505833718055]},"properties":{"CVEGEO":"0100120391759800","CVE_ENT":"01","CVE_MUN":"001","CVE_LOC":"2039","CVE_AGEB":"1759","CVE_MZA":"800","NOMGEO":"Capricho [Club de Golf]","PLANO":"No"}},
{"type":"Feature","geometry":{"type":"Point","coordinates":[-102.33719916673371,21.82158194406085]},"properties":{"CVEGEO":"0100120401138800","CVE_ENT":"01","CVE_MUN":"001","CVE_LOC":"2040","CVE_AGEB":"1138","CVE_MZA":"800","NOMGEO":"Santa Mónica [Club Hípico]","PLANO":"No"}},
{"type":"Feature","geometry":{"type":"Point","coordinates":[-102.22581583328251,21.833120277443598]},"properties":{"CVEGEO":"0100120411937800","CVE_ENT":"01","CVE_MUN":"001","CVE_LOC":"2041","CVE_AGEB":"1937","CVE_MZA":"800","NOMGEO":"El Relicario","PLANO":"Croquis"}},
{"type":"Feature","geometry":{"type":"Point","coordinates":[-102.19850555634243,21.836968611478316]},